course_id,course,city,state,street,zip_code,lng,lat,hole,public_private,golf_season,beg_mnth,end_mnth,championship_par,championship_yards,championship_slope,championship_usga,middle_par,middle_yards,middle_slope,middle_usga,forward_par,forward_yards,forward_slope,forward_usga
607,Eagle Crest,Alma,Arkansas,"3926 Golf Course Drive,",72921,-94.16776259999999,35.5000044,18,Public,year round,1,12,71,6869,125,73.30,71,6246,120,70.30,71,5257,117,70.40
611,Millwood Landing Golf & RV Resort,Ashdown,Arkansas,596 Hwy 317,71822,-94.0114861,33.7179706,18,Private,year round,1,12,72,6413,118,70.40,72,6159,116,69.30,72,4731,103,62.90
616,Country Club at Bella Vista Village Golf Courses,Bella Vista,Arkansas,101 Town Center,72714,-94.24901779999999,36.4751938,18,Private,year round,1,12,72,6920,126,73.00,72,6432,122,70.80,72,5537,116,71.60
617,Highlands at Bella Vista Village Golf Courses,Bella Vista,Arkansas,101 Town Center,72714,-94.24901779999999,36.4751938,18,Private,year round,1,12,72,6637,135,72.90,72,6098,127,68.90,72,5332,116,69.70
618,Kingswood at Bella Vista Village Golf Courses,Bella Vista,Arkansas,101 Town Center,72714,-94.24901779999999,36.4751938,18,Private,year round,1,12,72,6254,113,69.40,72,5922,110,67.80,71,5103,110,68.70
620,Scottsdale at Bella Vista Village Golf Courses,Bella Vista,Arkansas,101 Town Center,72714,-94.24901779999999,36.4751938,18,Private,year round,1,12,72,6776,128,72.10,72,6296,124,68.90,72,5392,112,69.60
622,Berksdale at Bella Vista Village Golf Courses,Bella Vista,Arkansas,101 Town Center,72714,-94.24901779999999,36.4751938,18,Private,year round,1,12,72,6366,115,69.60,72,6016,112,68.30,71,5001,120,68.80
624,Longhills Golf Course,Benton,Arkansas,327 Hwy 5 No,72015,-92.0827371,35.8505391,18,Semi-Private,year round,1,12,72,6539,108,69.90,72,6143,105,68.20,73,5350,110,69.50
627,DeGray State Park Golf Course,Bismarck,Arkansas,Rural Route 3,71929,-93.17073390000002,34.3162035,18,Public,year round,1,12,72,6930,134,72.70,72,6417,130,70.80,72,5731,123,67.00
628,Blytheville Country Club,Blytheville,Arkansas,Hwy 61 No,72315,-89.9188123,35.9272876,18,Private,year round,1,12,71,6647,115,70.70,71,6115,110,68.00,72,5527,113,70.20
637,Camden Country Club,Camden,Arkansas,1915 W Washington Ave,71701,-92.8657909,33.5858943,18,Private,year round,1,12,70,6175,110,68.60,70,5938,108,67.70,70,5263,116,70.60
639,South at Cherokee Village,Cherokee Village,Arkansas,Laguna Dr,72525,-91.5952205,36.288244,18,Semi-Private,year round,1,12,72,7058,128,73.50,72,6515,123,71.20,72,5270,116,70.40
640,North at Cherokee Village,Cherokee Village,Arkansas,Laguna Dr,72525,-91.5952205,36.288244,18,Semi-Private,year round,1,12,72,6687,120,71.70,72,6072,114,68.90,72,5146,114,69.50
643,Centennial Valley Golf Course,Conway,Arkansas,1600 Centennial Club Dr,72032,-92.50138659999999,35.1020098,18,Private,year round,1,12,72,7103,131,73.40,72,6226,125,69.90,72,4605,112,67.10
648,Chamberlyne Country Club,Danville,Arkansas,Hwy 27 Intersection 154,72833,-93.3934017,35.0539983,18,Private,year round,1,12,72,7047,125,72.90,72,6638,121,70.60,72,6229,116,68.30
649,Bay Ridge Boat & Golf Club,Dardanelle,Arkansas,Bay Ridge Rd,72834,-93.2075334,35.2556793,18,Semi-Private,year round,1,12,72,6289,123,70.10,72,5802,118,67.50,72,4827,118,67.90
650,DeQueen Country Club,De Queen,Arkansas,Route 3 Hwy 70-71,71832,-91.8318334,35.20105,9,Private,year round,1,12,36,3172,120,34.40,36,3067,118,33.90,36,2410,110,32.60
652,Diamond Hills Country Club,Diamond City,Arkansas,Hwy 7 S,72630,-92.9201119,36.4645075,18,Public,year round,1,12,69,6311,111,69.70,69,6017,109,68.30,72,5491,110,71.10
653,El Dorado Golf & Country Club,El Dorado,Arkansas,101 Shady Side Dr,71730,-92.6609713,33.2392704,18,Private,year round,1,12,71,6449,116,70.20,71,6143,114,68.90,73,5427,110,69.80
654,Mountain Ranch Golf Club at Fairfield Bay,Fairfield Bay,Arkansas,820 Lost Creek Pkwy,72088,-92.28827199999999,35.6112397,18,Resort,year round,1,12,72,6780,140,72.80,72,6280,135,70.60,72,5325,133,71.40
655,Indian Hills Golf Course at Fairfield Bay,Fairfield Bay,Arkansas,1008 Snead Dr,72088,-92.2500699,35.6235854,18,Private,year round,1,12,71,6442,127,71.90,71,5734,126,68.70,70,4869,118,69.30
656,Stonebridge Meadows Golf Club,Fayetteville,Arkansas,3495 E Goff Farms Rd,72701,-94.1122876,36.04472579999999,18,Public,year round,1,12,72,7150,138,74.80,72,6605,133,72.30,72,5225,128,70.70
657,Fayetteville Country Club,Fayetteville,Arkansas,3335 Country Club Dr,72701,-94.1576149,36.0292125,18,Private,year round,1,12,70,6208,132,69.60,70,5771,128,67.70,71,4822,120,67.20
658,Paradise Valley,Fayetteville,Arkansas,3728 Old Missouri Rd,72703,-94.126941,36.11743,18,Private,year round,1,12,70,6805,131,73.00,70,6169,125,70.10,70,4614,112,63.30
661,Forrest City Country Club,Forrest City,Arkansas,922 E Cross St,72335,-90.7799398,35.0079593,18,Private,year round,1,12,71,6054,110,67.20,71,5767,107,65.50,72,4800,103,61.10
662,Magnolia/Silo at Ben Geren Regional Park Golf Course,Fort Smith,Arkansas,7200 S Zero St,72903,-94.355611,35.325667,18,Public,year round,1,12,72,6840,114,71.70,72,6459,110,69.70,74,5347,111,69.40
663,Willow/Silo at Ben Geren Regional Park Golf Course,Fort Smith,Arkansas,7200 S Zero St,72903,-94.355611,35.325667,18,Public,year round,1,12,72,6812,118,71.10,72,6411,114,69.30,73,5126,112,68.50
665,Magnolia/Willow at Ben Geren Regional Park Golf Course,Fort Smith,Arkansas,7200 S Zero St,72903,-94.355611,35.325667,18,Public,year round,1,12,72,6732,114,71.30,72,6320,111,69.60,73,5023,109,67.90
666,Fianna Hills Country Club,Fort Smith,Arkansas,1 Essex Pl,72908,-94.4133699,35.290419,18,Private,year round,1,12,72,7043,131,74.20,72,6684,127,72.40,73,5360,116,66.70
668,Hardscrabble Country Club,Fort Smith,Arkansas,5211 S Cliff Dr,72903,-94.3612055,35.3579993,18,Private,year round,1,12,70,6619,130,72.90,70,6301,125,70.30,72,4999,114,70.70
669,Glenwood Country Club,Glenwood,Arkansas,US 70 E,71943,-93.5503114,34.3217112,18,Public,year round,1,12,72,6550,128,70.80,72,5941,122,68.00,72,5076,114,64.10
671,Vache Grasse Country Club,Greenwood,Arkansas,E Hwy 10 Country Club Rd,72936,-94.2245311,35.2030344,18,Semi-Private,year round,1,12,72,6418,114,70.50,72,6254,112,69.50,72,4862,113,67.40
673,Harrison Country Club,Harrison,Arkansas,N Hwy 62-65,72601,-93.1276678,36.2604241,18,Semi-Private,year round,1,12,70,6066,121,69.30,70,5743,118,68.10,72,4943,122,69.70
676,Red Apple Inn & Country Club,Heber Springs,Arkansas,325 Club Dr,72543,-92.1090284,35.4967441,18,Resort,year round,1,12,71,6431,128,71.50,71,6006,125,69.50,71,5137,117,70.20
679,Eighteen Hole at Holiday Island Country Club,Holiday Island,Arkansas,1 Country Club Dr,72631,-93.7300848,36.4659223,18,Private,year round,1,12,70,6159,116,68.30,70,5922,115,68.20,73,5188,121,70.00
680,Hope Country Club,Hope,Arkansas,3605 Patmos Rd,71801,-93.5793121,33.6314237,18,Private,year round,1,12,71,6035,122,69.00,71,5621,122,67.10,71,4725,118,67.20
683,Arlington at Hot Springs Golf & Country Club,Hot Springs,Arkansas,101 Country Club Dr,71901,-93.0312687,34.480055,18,Semi-Private,year round,1,12,72,6690,127,74.20,72,6517,126,73.10,73,5549,127,74.20
684,Majestic at Hot Springs Golf & Country Club,Hot Springs,Arkansas,101 Country Club Dr,71901,-93.0312687,34.480055,18,Semi-Private,year round,1,12,72,6761,120,71.50,72,6329,115,69.10,72,5519,121,71.10
686,Diamondhead Golf Club,Hot Springs,Arkansas,7200 Diamond Head,71913,-92.96262259999999,34.4434499,18,Semi-Private,year round,1,12,72,6547,124,73.90,72,6172,120,70.90,72,5413,128,76.30
689,Belvedere Country Club,Hot Springs National Park,Arkansas,385 Belvedere Dr,71901,-93.009407,34.5451318,18,Semi-Private,year round,1,12,72,6767,130,73.10,72,6204,126,70.10,72,5395,127,70.50
691,DeSoto at Hot Springs Village,Hot Springs Village,Arkansas,895 Desoto Blvd,71909,-92.97047300000001,34.6709268,18,Private,year round,1,12,72,6733,130,73.40,72,6392,127,71.80,73,5652,127,73.30
692,Balboa at Hot Springs Village,Hot Springs Village,Arkansas,895 Desoto Blvd,71909,-92.97047300000001,34.6709268,18,Private,year round,1,12,72,6725,133,72.70,72,6307,131,70.80,73,5362,130,71.80
693,Cortez at Hot Springs Village,Hot Springs Village,Arkansas,895 Desoto Blvd,71909,-92.97047300000001,34.6709268,18,Private,year round,1,12,72,6610,132,72.10,72,6270,129,70.50,73,5473,128,72.00
695,Magellan at Hot Springs Village,Hot Springs Village,Arkansas,895 Desoto Blvd,71909,-92.97047300000001,34.6709268,18,Private,year round,1,12,72,6494,123,70.90,72,5982,118,68.70,72,4877,120,68.50
696,Diamante Golf Course,Hot Springs Village,Arkansas,2000 Country Club Dr,71909,-92.86693729999999,34.6438105,18,Private,year round,1,12,72,7560,143,76.90,72,6935,135,73.90,72,5322,131,73.70
697,Ponce de Leon at Hot Springs Village,Hot Springs Village,Arkansas,895 Desoto Blvd,71909,-92.97047300000001,34.6709268,18,Private,year round,1,12,72,6946,134,73.90,72,6436,130,71.60,72,5273,125,72.00
700,Foxwood Country Club,Jacksonville,Arkansas,701 Foxwood Dr,72076,-92.08189540000001,34.8929784,18,Semi-Private,year round,1,12,72,6413,110,69.80,72,6080,107,68.30,72,5225,111,69.20
701,Deer Run Golf Course,Jacksonville,Arkansas,Building 1075,72099,-92.1101458,34.8662005,18,Military,year round,1,12,72,6834,123,71.80,72,6377,119,70.00,72,5727,118,72.60
703,RidgePointe Country Club,Jonesboro,Arkansas,2510 RidgePointe Dr,72404,-90.76895400000001,35.8118266,18,Private,year round,1,12,72,6539,132,72.40,72,6125,129,70.40,73,5167,130,71.60
705,Sage Meadows Golf Course,Jonesboro,Arkansas,4406 Club House Dr,72401,-90.6380125,35.8862093,18,Semi-Private,year round,1,12,72,6901,129,72.50,72,6396,126,70.60,72,4947,119,69.20
707,Jonesboro Country Club,Jonesboro,Arkansas,1408 E Nettleton,72401,-90.69064949999999,35.8290879,18,Private,year round,1,12,71,6060,114,68.50,71,5689,112,67.20,71,5024,119,71.30
709,Championship at Rebsamen Park Golf Course,Little Rock,Arkansas,3400 Rebsamen Park Rd,72202,-92.3214656,34.7822204,18,Public,year round,1,12,72,7033,129,72.10,72,6426,122,69.20,72,4784,105,65.80
710,Chenal Country Club,Little Rock,Arkansas,10 Chenal Club Blvd,72223,-92.4749429,34.7804348,18,Private,year round,1,12,72,7149,144,75.10,72,6631,136,72.60,72,5157,125,72.40
711,Country Club of Little Rock,Little Rock,Arkansas,4200 Country Club Blvd,72207,-92.3194932,34.7738684,18,Private,year round,1,12,70,6454,129,71.40,70,6180,127,70.20,74,5683,130,72.70
713,Little Rock's Hindman Park Golf Course,Little Rock,Arkansas,60 Brookview Dr,72209,-92.36062299999999,34.696144,18,Public,year round,1,12,72,6805,124,71.90,72,6443,109,68.90,72,4690,121,68.60
714,North Hills Country Club,Little Rock,Arkansas,7400 Hwy 107,72120,-92.23068289999999,34.8218437,18,Private,year round,1,12,71,6438,132,71.50,71,6048,127,69.60,72,5201,129,71.80
715,Regulation at Pleasant Valley Country Club,Little Rock,Arkansas,1 Pleasant Valley Dr,72212,-92.40868800000001,34.777107,18,Private,year round,1,12,72,7060,134,73.80,72,6368,128,70.70,74,5544,129,72.80
720,Lakeview Golf & Country Club,Mabelvale,Arkansas,8500 Castle Valley Rd,72103,-92.3716262,34.6365123,18,Public,year round,1,12,71,5787,100,65.90,71,5526,100,65.90,71,4768,121,72.50
723,Magnolia Country Club,Magnolia,Arkansas,1711 Hwy 79 S,71753,-93.239334,33.2670725,18,Private,year round,1,12,72,6752,123,71.00,72,6378,115,66.90,72,5422,118,70.10
727,Marion Lakes Golf & Athletic Club,Marion,Arkansas,303 Club Circle,72364,-90.2047577,35.1957319,18,Private,year round,1,12,72,6700,130,73.00,72,6091,123,69.70,72,4386,116,68.70
729,"Country Club of Arkansas, The",Maumelle,Arkansas,2 Country Club Ln,72113,-92.39772699999999,34.842518,18,Semi-Private,year round,1,12,72,6458,128,71.60,72,5946,123,69.30,72,4857,114,64.70
730,Maumelle Country Club,Maumelle,Arkansas,100 Club Manor Dr,72113,-92.4130079,34.8431141,18,Private,year round,1,12,72,7414,132,75.40,72,7151,130,74.20,72,5454,125,71.60
736,Twin Lakes Golf Club,Mountain Home,Arkansas,70 Elk Way,72653,-92.3557781,36.3525447,18,Semi-Private,year round,1,12,70,5910,117,69.40,70,5669,115,68.00,70,5018,109,64.70
741,Newport Country Club,Newport,Arkansas,703 Walker Dr,72112,-91.269229,35.599046,18,Private,year round,1,12,70,5769,99,66.20,70,5169,96,64.90,70,4349,100,66.60
745,Championship at Burns Park Golf Course,North Little Rock,Arkansas,Burns Park,72118,-92.3099177,34.7976957,18,Public,year round,1,12,71,6352,116,69.70,71,5830,112,67.70,71,5034,120,70.50
747,Stone Links G.C.,North Little Rock,Arkansas,110 Hwy 391No,72117,-92.12136000000001,34.747544,18,Public,year round,1,12,72,7035,119,72.40,72,6699,117,71.20,72,5118,120,70.30
753,Harbor Oaks Golf Club,Pine Bluff,Arkansas,1 Harbor Oaks Dr,71601,-91.9869293,34.2525214,18,Public,year round,1,12,72,7010,125,72.70,72,6503,121,70.40,72,5249,122,70.20
755,Pine Bluff Country Club,Pine Bluff,Arkansas,1100 Country Club Ln,71603,-92.0133196,34.1834795,18,Private,year round,1,12,71,6649,120,71.60,71,6303,117,70.00,71,5250,117,70.30
756,Rosswood Country Club,Pine Bluff,Arkansas,7619 Rosswood Rd,71603,-92.011453,34.146038,18,Private,year round,1,12,72,6908,118,72.00,72,6600,116,70.60,73,5292,116,70.30
760,Lost Springs Golf & Athletic Club,Rogers,Arkansas,3024 N 22nd St,72756,-94.1483839,36.3621849,18,Private,year round,1,12,72,6849,131,72.50,72,6196,126,70.20,72,4388,118,62.30
761,Pinnacle Country Club,Rogers,Arkansas,3 Clubhouse Dr,72758,-94.19882310000001,36.2969715,18,Private,year round,1,12,71,6745,139,73.30,71,6102,132,70.40,71,4949,131,71.80
764,Searcy Country Club,Searcy,Arkansas,Country Club Rd,72143,-91.77556419999999,35.2411492,18,Private,year round,1,12,71,6423,118,69.10,71,5701,112,66.00,71,4920,114,69.20
765,"Course at River Oaks, The",Searcy,Arkansas,1 Golf Course Dr,72143,-91.6996309,35.25819690000001,18,Private,year round,1,12,71,6159,116,69.80,71,5860,113,68.40,71,4987,106,64.40
768,Dawn Hill Golf & Racquet Club,Siloam Springs,Arkansas,Dawn Hill Rd,72761,-94.5406235,36.2070048,18,Resort,year round,1,12,72,6852,114,71.30,72,6522,111,69.80,73,5330,110,69.10
769,Siloam Springs Country Club,Siloam Springs,Arkansas,801 N Country Club Rd,72761,-94.52248929999999,36.1917498,9,Semi-Private,year round,1,12,35,2927,118,33.40,35,2802,117,33.00,37,2452,112,31.40
773,Springdale Country Club,Springdale,Arkansas,4705 S Thompson,72764,-94.1441924,36.1417872,18,Private,year round,1,12,72,6673,119,72.10,72,6168,114,69.80,72,5062,105,69.40
776,South Haven Golf Club,Texarkana,Arkansas,Route 10,71854,-94.0141426,33.4444053,18,Public,year round,1,12,71,6227,123,69.30,71,5872,122,69.20,71,4951,117,69.80
783,Meadowbrook Country Club,West Memphis,Arkansas,1250 W Broadway,72301,-90.21097189999999,35.1436246,18,Private,year round,1,12,71,6522,115,70.60,71,5906,112,69.30,71,5327,113,69.60
3962,Oak Meadows Golf Course,Addison,Illinois,900 N Wood Dale Rd,60101,-87.98280319999999,41.9466239,18,Public,Open: 4/01 Closed: 12/01,4,11,71,6718,126,72.10,71,6376,122,70.60,73,5954,119,68.40
3966,Golf Club of Illinois,Algonquin,Illinois,1575 Edgewood Rd,60102,-88.3177429,42.15721240000001,18,Public,Open: 3/01 Closed: 11/30,3,11,71,6958,130,73.10,71,6511,124,71.10,71,4870,111,67.80
3971,"Woodlands Golf Club, The",Alton,Illinois,2839 Harris Ln,62002,-90.1355627,38.9310357,18,Public,year round,1,12,71,6401,123,71.00,71,6021,117,68.90,71,4775,111,68.00
3973,Lockhaven Country Club,Alton,Illinois,Lockhaven Rd,62002,-90.2990133,38.94634629999999,18,Private,year round,1,12,72,6992,129,71.70,72,6421,126,70.90,72,5500,121,66.70
3975,Spencer T. Olin Community Golf Course,Alton,Illinois,4701 College Ave,62002,-90.1042695,38.9091505,18,Public,Open: 4/01 Closed: 10/01,4,9,72,6941,135,73.80,72,6414,128,71.30,72,5049,117,68.50
3976,Shady Oaks Country Club,Amboy,Illinois,Hwy 52,61310,-89.32931669999999,41.7140697,18,Semi-Private,Open: 4/01 Closed: 10/01,4,9,71,6163,120,68.50,71,5557,116,66.90,72,4643,115,66.80
3978,Antioch Golf Club,Antioch,Illinois,40150 N Route 59,60002,-88.1117543,42.446575,18,Public,year round,1,12,71,6251,117,69.70,71,6029,114,68.20,70,5456,112,72.40
3982,Arlington Lakes Golf Club,Arlington Heights,Illinois,1211 S New Wilkes Rd,60005,-88.0024796,42.0625188,18,Public,Open: 3/01 Closed: 11/01,3,10,68,5331,115,65.80,68,4976,110,64.10,68,4648,113,66.70
3985,Edgewood Golf Club,Auburn,Illinois,Rural Route 3,62615,-89.72100830000001,39.5902748,18,Public,year round,1,12,71,6306,124,70.10,71,6021,119,68.30,71,5324,118,69.90
3987,Orchard Valley Golf Course,Aurora,Illinois,2411 W Illinois Ave,60506,-88.3789386,41.7751366,18,Public,Open: 4/01 Closed: 11/15,4,11,72,6745,132,72.20,72,6358,124,70.40,72,5162,118,70.10
3989,Aurora Country Club,Aurora,Illinois,Prairie & Western Ave,60507,-95.83701719999999,37.1247941,18,Private,Open: 4/01 Closed: 10/31,4,10,72,6644,131,72.70,72,6367,128,71.40,72,5495,124,71.10
3990,Stonebridge Country Club,Aurora,Illinois,2705 Stonebridge Blvd,60504,-88.2513659,41.7875689,18,Private,Open: 4/01 Closed: 11/01,4,10,72,6905,132,73.30,72,6418,127,70.80,72,5194,118,70.40
3993,Stonehenge Golf Club,Barrington,Illinois,27250 W Hwy 22,60010,-88.1691829,42.1935452,18,Private,year round,1,12,72,6779,127,72.50,72,6291,121,70.30,72,5419,116,70.60
3995,Barrington Hills Country Club,Barrington,Illinois,300 W County Line Rd,60010,-88.16595699999999,42.1553958,18,Private,Open: 4/01 Closed: 10/31,4,10,71,6795,136,72.90,71,6619,134,72.10,73,5925,132,75.10
3996,Biltmore Country Club,Barrington,Illinois,160 Biltmore Dr,60010,-88.13501040000001,42.199631,18,Private,Open: 4/01 Closed: 10/15,4,10,71,6652,134,72.30,71,6400,131,71.10,74,5717,130,73.00
3997,Lake Barrington Shores Golf Club,Barrington,Illinois,40 Shoreline Rd,60010,-88.14904489999999,42.2129961,18,Private,Open: 4/01 Closed: 12/31,4,12,71,6392,127,70.70,71,6016,123,68.90,71,5356,125,72.30
4001,Bartlett Hills Golf Club,Bartlett,Illinois,800 W Oneida Ave,60103,-88.1957147,41.9949106,18,Public,Open: 4/01 Closed: 11/30,4,11,71,6482,124,71.20,71,6188,123,70.60,71,5488,121,71.80
4002,Villa Olivia Country Club,Bartlett,Illinois,Lake St & Naperville Rd,60103,-82.6915429,42.4356504,18,Public,Open: 3/15 Closed: 11/15,3,11,73,6510,124,71.30,73,6205,122,70.10,72,5546,122,72.50
4003,Settler's Hill Golf Course,Batavia,Illinois,919 E Fabyan Pkwy,60510,-88.292355,41.8713653,18,Public,Open: 4/01 Closed: 11/01,4,10,72,6630,130,72.10,72,6223,126,70.30,72,4945,120,68.90
4005,ThunderHawk Golf Club,Beach Park,Illinois,39700 N Lewis Ave,60099,-87.8660235,42.4391576,18,Public,Open: 4/01 Closed: 11/15,4,11,72,7031,136,73.80,72,6631,132,71.90,72,5046,122,69.20
4006,South/Center at Shady Lawn Golf Course,Beecher,Illinois,615 Dixie Hwy,60401,-87.61977329999999,41.3431315,18,Semi-Private,year round,1,12,72,6423,112,69.10,72,6192,111,68.50,72,5574,110,68.90
4007,Center/North at Shady Lawn Golf Course,Beecher,Illinois,615 Dixie Hwy,60401,-87.61977329999999,41.3431315,18,Semi-Private,year round,1,12,72,6413,114,69.20,72,6225,111,68.30,72,5592,110,67.80
4008,North/South at Shady Lawn Golf Course,Beecher,Illinois,615 Dixie Hwy,60401,-87.61977329999999,41.3431315,18,Semi-Private,year round,1,12,72,6558,115,69.50,72,6297,113,68.30,72,5734,112,68.40
4009,Orchards Golf Course,Belleville,Illinois,1499 Golf Course Dr,62220,-89.926459,38.48798,18,Public,year round,1,12,71,6405,121,69.00,71,5874,116,66.60,71,5001,120,70.10
4010,Clinton Hill Country Club,Belleville,Illinois,3700 Old Collinsville Rd,62226,-89.9657362,38.5512381,18,Public,year round,1,12,71,6568,121,70.50,71,6048,116,68.90,71,5176,119,68.40
4012,St. Clair Country Club,Belleville,Illinois,100 S 78th St,62223,-90.05241889999999,38.5618934,18,Private,year round,1,12,72,6411,130,71.40,72,6079,126,69.70,72,5390,118,70.80
4017,West at White Pines Golf Course,Bensenville,Illinois,500 W Jefferson St,60106,-87.9466853,41.94195510000001,18,Public,Year Round Facility,1,12,72,6601,118,71.10,72,6335,115,69.80,74,5998,120,73.20
4018,East at White Pines Golf Course,Bensenville,Illinois,500 W Jefferson St,60106,-87.9466853,41.94195510000001,18,Public,Open: 3/01 Closed: 12/01,3,11,71,6379,122,70.20,71,5999,118,68.40,74,5331,117,70.30
4023,East Trail at Indian Lakes Resort,Bloomingdale,Illinois,250 W Schick Rd,60108,-88.0989293,41.9526258,18,Resort,Open: 3/01 Closed: 12/01,3,11,72,6890,120,72.40,72,6524,117,70.90,72,5031,117,70.50
4024,Bloomingdale Golf Course,Bloomingdale,Illinois,181N Glen Ellen Rd,60108,-88.06002,41.952601,18,Public,Open: 4/01 Closed: 10/01,4,9,70,6082,108,68.20,70,5940,107,67.50,70,5489,111,70.50
4025,West Trail at Indian Lakes Resort,Bloomingdale,Illinois,250 W Schick Rd,60108,-88.0989293,41.9526258,18,Resort,Open: 3/01 Closed: 12/01,3,11,72,6901,120,71.70,72,6542,118,71.10,72,5088,110,68.30
4026,"Den at Fox Creek, The",Bloomington,Illinois,3002 Fox Creek Rd,61704,-89.042586,40.446061,18,Public,year round,1,12,72,6926,128,72.90,72,6422,124,70.40,72,5345,116,70.10
4027,Bloomington Country Club,Bloomington,Illinois,605 Towanda Ave,61701,-88.9726419,40.4837886,18,Private,Open: 4/01 Closed: 11/01,4,10,71,6505,127,71.90,71,6395,126,71.50,73,5784,122,73.60
4028,Crestwicke Country Club,Bloomington,Illinois,Route 13,61704,-88.99421439999999,40.4843831,18,Private,Open: 3/01 Closed: 11/01,3,10,72,6829,130,72.60,72,6518,125,71.20,73,5673,122,72.30
4031,Prairie Vista Golf Course,Bloomington,Illinois,502 Sale Barn Rd,61704,-89.00068069999999,40.4492433,18,Public,Open: 3/01 Closed: 11/01,3,10,72,6745,128,71.80,72,6427,124,70.30,71,5224,114,68.90
4032,"Meadows Golf Club of Blue Island, The",Blue Island,Illinois,2802 123rd St,60406,-87.6904309,41.67104399999999,18,Public,Open: 4/01 Closed: 10/31,4,10,71,6549,112,71.10,71,6287,110,69.10,71,5040,107,67.70
4034,North at Bon Vivant Country Club,Bourbonnais,Illinois,Career Ctr Rd,60914,-87.89529189999999,41.1939945,18,Public,Open: 3/01 Closed: 11/01,3,10,72,6653,117,70.90,72,5799,112,68.60,72,5181,108,66.80
4036,Championship at Bon Vivant Country Club,Bourbonnais,Illinois,Career Ctr Rd,60914,-87.89529189999999,41.1939945,18,Public,Open: 3/01 Closed: 11/01,3,10,72,7498,130,75.80,72,7014,125,73.60,75,5979,126,74.80
4039,Blackberry Oaks Golf Club,Bristol,Illinois,2245 Kennedy Rd,60512,-88.4076286,41.6904023,18,Public,Open: 4/01 Closed: 11/30,4,11,72,6332,125,70.50,72,5900,121,68.70,72,5218,123,70.80
4040,Arboretum Golf Club,Buffalo Grove,Illinois,401 Half Day Rd,60089,-87.9671578,42.1961734,18,Public,Open: 3/01 Closed: 12/01,3,11,72,6477,132,71.10,72,6113,128,69.50,72,5039,118,68.70
4041,Buffalo Grove Golf Course,Buffalo Grove,Illinois,48 Raupp Blvd,60089,-87.96837819999999,42.1530724,18,Public,year round,1,12,72,6892,120,71.50,72,6495,116,70.60,75,6023,122,73.50
4045,PrairieView Golf Course,Byron,Illinois,7993 N River Rd,61010,-89.2663986,42.1177153,18,Public,Open: 4/01 Closed: 10/31,4,10,72,7117,123,72.30,72,6610,119,70.60,72,5269,117,71.60
4049,Indian Trails,Camp Point,Illinois,Route 2,62320,-91.06424349999999,40.0395113,18,Public,Open: 4/01 Closed: 10/01,4,9,72,6334,118,70.10,72,6100,115,68.50,72,5394,114,69.50
4050,Canton Country Club,Canton,Illinois,1920 N Main St,61520,-90.03691909999999,40.5842463,18,Private,Open: 3/01 Closed: 12/31,3,12,71,6172,114,69.20,71,5577,105,66.50,71,4814,106,67.10
4051,Hickory Ridge Public Golf Center,Carbondale,Illinois,2727 W Glenn Rd,62901,-89.2496896,37.7512848,18,Public,year round,1,12,72,6863,137,73.30,72,6486,134,71.60,72,5506,121,72.50
4053,Championship at Governors Run Golf & Country Club,Carlyle,Illinois,3300 Governors Dr,62231,-89.36655379999999,38.6342342,18,Public,year round,1,12,72,7013,131,73.90,72,6440,125,70.90,72,4570,110,69.40
4055,Carlyle Lake Golf Club,Carlyle,Illinois,11717 State Route 127,62231,-89.375264,38.5919165,9,Public,year round,1,12,36,3309,124,35.40,36,3258,123,35.10,36,2886,113,35.60
4059,Crab Orchard Golf Club,Carterville,Illinois,W Grand Ave,62918,-89.0971852,37.7602088,18,Semi-Private,year round,1,12,70,6420,129,71.00,70,5844,121,68.60,71,5058,114,68.40
4061,Chalet Hills Golf Club,Cary,Illinois,943 W Rawson Bridge Rd,60013,-88.23128299999999,42.242195,18,Public,Open: 4/01 Closed: 11/01,4,10,73,6877,131,73.40,73,6594,129,71.90,73,4944,101,64.10
4070,Champaign Country Club,Champaign,Illinois,1211 S Prospect Ave,61820,-88.2601866,40.1038534,18,Private,Open: 4/01 Closed: 12/01,4,11,71,6452,125,71.10,71,6102,122,69.50,71,5533,120,71.90
4071,Lincolnshire Fields Country Club,Champaign,Illinois,2000 Byrnebruk Dr,61822,-88.3077297,40.087075,18,Private,Open: 3/01 Closed: 11/01,3,10,72,6792,130,73.20,72,6445,124,71.10,72,5626,123,72.60
4072,Heritage Bluffs Public Golf Club,Channahon,Illinois,24355 W Bluff Rd,60410,-88.203696,41.4337296,18,Public,Open: 4/01 Closed: 11/15,4,11,72,7106,138,73.90,72,6586,133,71.50,72,4967,114,68.60
4073,Charleston Country Club,Charleston,Illinois,Country Club Dr,61920,-88.2284904,39.49840400000001,18,Private,Open: 2/01 Closed: 12/01,2,11,72,6266,125,70.90,72,5861,119,68.70,70,4735,115,68.60
4082,Port at Harborside International Golf Center,Chicago,Illinois,11001 S Doty Ave E,60628,-87.59147899999999,41.6931827,18,Public,Open: 4/01 Closed: 10/31,4,10,72,7164,136,75.10,72,6589,130,72.70,72,5164,122,70.80
4083,Starboard at Harborside International Golf Center,Chicago,Illinois,11001 S Doty Ave E,60628,-87.59147899999999,41.6931827,18,Public,Open: 4/01 Closed: 10/31,4,10,72,7166,137,75.20,72,6620,130,72.90,72,5110,122,70.40
4084,Beverly Country Club,Chicago,Illinois,8700 S Western Ave,60620,-87.684832,41.7309539,18,Private,Open: 4/15 Closed: 10/31,4,10,71,6826,133,72.90,71,6556,131,71.90,72,5999,129,74.30
4087,Ridge Country Club,Chicago,Illinois,10522 S California Ave,60655,-87.6916246,41.7018442,18,Private,Open: 3/01 Closed: 11/01,3,10,70,6231,124,71.90,70,6060,122,69.20,72,5739,123,72.60
4088,Ridgemoor Country Club,Chicago,Illinois,6601 W Gunnison St,60706,-87.790573,41.965007,18,Private,Open: 4/01 Closed: 11/30,4,11,72,6719,135,73.10,72,6317,130,71.30,72,5385,118,66.80
4092,Arrowhead Country Club,Chillicothe,Illinois,19430 Centerville Rd,61523,-89.607109,40.9264755,18,Private,Open: 4/01 Closed: 10/31,4,10,72,6543,126,71.30,72,6317,123,70.50,72,5500,121,72.20
4093,Hinsdale Golf Club,Clarendon Hills,Illinois,140 Chicago Ave,60514,-87.953802,41.8056089,18,Private,Open: 4/01 Closed: 11/01,4,10,71,6520,129,71.70,71,6239,125,70.60,72,5304,120,70.90
4095,Oakwood Country Club,Coal Valley,Illinois,Hwy 6 E,61240,-90.4609648,41.4286456,18,Private,Open: 4/15 Closed: 11/30,4,11,71,6663,126,72.20,71,6152,120,69.70,71,5204,116,69.50
4099,Columbia Golf Club,Columbia,Illinois,125 AA Rd,62236,-90.22009,38.4804893,18,Public,year round,1,12,71,6064,110,69.40,71,5780,105,68.10,70,4931,103,66.30
4101,Flag Creek Golf Course,Countryside,Illinois,6939 S Wolf Rd,60525,-87.89336449999999,41.7651091,9,Public,Open: 4/01 Closed: 12/15,4,12,33,2492,104,31.90,33,2167,97,30.30,33,1835,95,30.40
4102,Balmoral Woods Country Club,Crete,Illinois,26732 S Balmoral Woods Dr,60417,-87.6128956,41.405361,18,Public,Open: 3/01 Closed: 11/01,3,10,72,6603,128,72.40,72,6284,125,70.90,72,5147,118,69.80
4103,Lincolnshire Country Club,Crete,Illinois,390 E Richton Rd,60417,-87.604511,41.4599509,18,Private,Open: 3/01 Closed: 10/31,3,10,72,6800,124,70.90,72,6700,122,70.20,74,5868,124,74.10
4106,Longwood Country Club,Crete,Illinois,3503 E Steger Rd,60417,-87.5274017,41.4701937,18,Semi-Private,year round,1,12,70,6404,123,70.50,70,6001,119,68.60,72,5636,120,72.10
4107,Crystal Lake Country Club,Crystal Lake,Illinois,721 Country Club Rd,60014,-88.3469569,42.2251853,18,Private,Open: 3/01 Closed: 11/01,3,10,71,6632,135,72.70,71,6385,132,71.40,73,5728,129,73.70
4108,Turnberry Country Club,Crystal Lake,Illinois,9600 Turnberry Trl,60014,-88.3851171,42.2202229,18,Private,Open: 4/01 Closed: 11/15,4,11,72,6852,134,73.10,72,6490,130,71.40,72,5825,129,74.20
4109,Redtail Golf Club,Crystal Lake,Illinois,7900 Redtail Rd,60014,-88.373441,42.2138465,18,Public,year round,1,12,72,6885,123,72.10,72,6535,121,71.40,72,5400,116,70.30
4111,Wee-Ma-Tuk Hills Country Club,Cuba,Illinois,15722 E Kenabeck Trl,61427,-90.1476386,40.5319878,18,Private,Open: 3/01 Closed: 12/01,3,11,72,6486,125,72.00,72,6164,119,70.50,72,4889,112,67.90
4112,Oak Run Public Golf Course,Dahinda,Illinois,1470 Knox Rd 1725 No,61428,-90.1107135,40.9242849,18,Public,Open: 3/01 Closed: 11/15,3,11,71,6417,115,68.50,71,6105,113,67.50,71,5129,112,68.90
4113,Danville Country Club,Danville,Illinois,Denmark Rd,61832,-87.64697509999999,40.1756692,18,Private,Open: 3/01 Closed: 11/01,3,10,71,6327,124,70.50,71,6150,122,69.60,72,5276,117,70.10
4114,Turtle Run Golf Club,Danville,Illinois,332 E Liberty Ln,61832,-87.6231028,40.1750021,18,Public,Open: 3/01 Closed: 11/30,3,11,72,6771,122,71.80,72,6541,120,70.70,73,5595,116,71.60
4115,Harrison Park Golf Course,Danville,Illinois,1300 W Voorhees St,61832,-87.653818,40.1465246,18,Public,year round,1,12,71,6111,119,70.30,71,5840,115,68.60,71,4914,110,68.50
4119,Faries Park Golf Course,Decatur,Illinois,1 Faries Park Way,62521,-88.8786185,39.8664873,18,Public,Open: 3/01 Closed: 11/30,3,11,72,6708,117,70.80,72,6468,114,69.80,76,5772,116,71.10
4121,Scovill Golf Club,Decatur,Illinois,3909 W Main St,62522,-89.02024829999999,39.8421361,18,Public,Open: 3/01 Closed: 11/30,3,11,71,5895,119,67.80,71,5245,112,65.50,71,4303,108,64.80
4122,South Side Country Club,Decatur,Illinois,W Grove Rd,62521,-88.9664605,39.8039165,18,Private,Open: 4/01 Closed: 11/15,4,11,71,6364,126,70.60,71,6194,123,69.90,73,5459,122,71.50
4124,Country Club of Decatur,Decatur,Illinois,135 N Country Club Rd,62521,-88.88515170000001,39.8434852,18,Private,Open: 4/01 Closed: 10/31,4,10,72,6639,125,71.50,72,6315,123,70.40,72,5500,125,72.10
4125,Briarwood Country Club,Deerfield,Illinois,355 Deerfield Rd,60015,-87.8368708,42.1660992,18,Private,Open: 3/15 Closed: 12/01,3,11,71,6810,130,73.20,71,6575,127,71.80,72,5889,127,74.10
4126,Ravinia Green Country Club,Deerfield,Illinois,1200 Saunders Rd,60015,-87.883022,42.1660353,18,Private,Open: 2/01 Closed: 12/20,2,12,72,6765,127,72.40,72,6449,124,71.20,73,5718,126,73.10
4129,River Heights Golf Course,De Kalb,Illinois,1120 Sharon Dr,60115,-88.7717565,41.9183467,18,Public,Open: 3/01 Closed: 10/31,3,10,72,6483,118,70.30,72,6058,115,63.40,72,5762,117,62.10
4130,Kishwaukee Country Club,De Kalb,Illinois,1901 Sycamore Rd,60115,-88.7324603,41.9498434,18,Private,Open: 3/01 Closed: 12/01,3,11,70,6324,124,70.90,70,6075,121,69.50,73,5504,126,73.40
4132,Dixon Country Club,Dixon,Illinois,729 Timber Creek Rd,61021,-89.49136580000001,41.8718152,18,Private,Open: 4/01 Closed: 11/01,4,10,71,6504,122,71.10,71,6392,115,70.10,72,5516,114,71.50
4134,Downers Grove Park District Golf Course,Downers Grove,Illinois,2420 Haddow Ave,60515,-88.0417221,41.7983342,9,Public,Open: 3/11 Closed: 11/12,3,11,35,3230,122,35.30,35,3012,113,34.20,38,2629,115,34.70
4135,Randall Oaks Golf Club,Dundee,Illinois,37W361 Binnie Rd,60118,-88.348781,42.11700700000001,18,Public,Open: 4/01 Closed: 11/01,4,10,71,6208,118,70.40,71,5949,115,69.40,71,5351,119,71.30
4136,Dwight Country Club,Dwight,Illinois,31577 N 2400 E Rd,60420,-88.4714303,41.0867487,18,Semi-Private,year round,1,12,71,6506,128,71.50,71,6156,125,69.60,71,5142,120,69.70
4141,Blue at Lacoma Golf Club,East Dubuque,Illinois,8080 Timmerman,61025,-90.62638129999999,42.4893491,18,Public,Open: 4/01 Closed: 11/01,4,10,71,6695,123,71.80,71,6272,119,70.60,71,5784,117,70.00
4144,Short Hills Country Club,East Moline,Illinois,2500 11th St,61244,-90.5236778,41.4880209,18,Private,Open: 4/01 Closed: 11/01,4,10,72,6558,123,71.70,72,6268,111,70.40,72,5379,116,70.70
4147,Sunset Hills Country Club,Edwardsville,Illinois,Route 157 S,62025,-90.0114195,38.6821203,18,Private,year round,1,12,72,6851,138,73.60,72,6427,133,71.20,72,5363,121,70.60
4149,Fox Creek Golf Club,Edwardsville,Illinois,6555 Fox Creek Dr,62025,-89.9551039,38.8504068,18,Semi-Private,Open: 3/15 Closed: 11/15,3,11,72,7100,144,74.90,72,6635,138,73.20,72,5200,134,71.30
4151,Effingham Country Club,Effingham,Illinois,W Route 40,62401,-88.5433703,39.1200109,18,Private,Open: 3/01 Closed: 11/20,3,11,72,6221,119,70.10,72,6002,115,68.90,72,4941,110,67.90
4153,Hughes Creek Golf Club,Elburn,Illinois,1749 Spring Valley Dr,60119,-88.4521889,41.8678961,18,Public,Open: 4/01 Closed: 11/30,4,11,72,6506,118,71.40,72,6204,116,69.90,72,5561,117,72.20
4157,Spartan Meadows Golf Club,Elgin,Illinois,1969 Spartan Dr,60123,-88.3239261,42.0151359,18,Public,Open: 4/01 Closed: 11/01,4,10,72,6853,123,72.70,72,6521,121,70.80,72,5350,116,70.30
4158,Wing Park Golf Course,Elgin,Illinois,1000 Wing St,60123,-88.30473769999999,42.0477883,9,Public,Open: 4/01 Closed: 10/31,4,10,36,3077,114,34.60,36,2775,115,35.40,36,2627,107,32.90
4159,Fox Run Golf Links,Elk Grove Village,Illinois,333 Plum Grove Rd,60007,-88.05995879999999,42.0141756,18,Public,Open: 3/01 Closed: 11/15,3,11,70,6287,117,70.20,70,5925,113,68.60,70,5288,114,69.90
4160,River Forest Country Club,Elmhurst,Illinois,15W 468 Grand Ave,60126,-87.931938,41.933711,18,Private,Open: 4/01 Closed: 12/01,4,11,72,6725,128,72.80,72,6496,125,71.60,73,5783,131,74.50
4163,Green Acres Golf Club,Energy,Illinois,Route 148 S,62933,-89.05354710000002,37.9580163,18,Semi-Private,year round,1,12,72,5889,107,67.00,72,5599,105,66.10,72,4372,105,66.00
4166,Peter N. Jans Community Golf Course,Evanston,Illinois,1031 Central St,60201,-87.68753799999999,42.065168,18,Public,year round,1,12,60,3844,86,57.90,60,3566,83,56.80,61,3159,84,57.20
4172,Blue Needle Golf Course,Fairmount,Illinois,9202 Blue Needle Dr,61841,-87.7627723,40.07749219999999,18,Public,Open: 3/01 Closed: 11/01,3,10,72,6081,116,68.90,72,5759,112,67.20,72,4907,101,63.10
4173,Stonewolf Golf Club,Fairview Heights,Illinois,1195 Stonewolf Trl,62208,-89.99004149999999,38.6168549,18,Public,year round,1,12,72,6943,141,74.00,72,6533,132,70.10,71,4849,126,67.20
4175,Indian Springs Golf Club,Fillmore,Illinois,21347 Illinois Rural Route 185,62032,-89.2926864,39.0436897,18,Public,Open: 4/01 Closed: 11/01,4,10,70,6148,122,68.90,70,5724,117,67.40,70,4396,103,64.20
4176,Eagle Creek Resort,Findlay,Illinois,Eagle Creek State Park,62534,-88.70830029999999,39.4980096,18,Resort,year round,1,12,72,6908,132,73.50,72,6559,127,71.60,72,4978,115,69.10
4180,Flossmoor Country Club,Flossmoor,Illinois,193 Western Ave,60422,-87.6746435,41.5385534,18,Private,Open: 3/15 Closed: 11/01,3,10,72,6928,135,73.30,72,6528,131,71.40,75,5625,130,72.80
4181,Idlewild Country Club,Flossmoor,Illinois,19200 Dixie Hwy,60422,-87.6638541,41.5400529,18,Private,Open: 2/01 Closed: 12/01,2,11,72,6628,129,71.40,72,6403,126,70.80,72,5824,125,73.60
4182,Hickory Point Golf Course,Forsyth,Illinois,727 Weaver Rd,62535,-88.9670864,39.9237619,18,Public,Open: 3/01 Closed: 11/01,3,10,72,6790,121,71.40,72,6514,119,70.10,73,5834,120,72.10
4185,Fox Lake Country Club,Fox Lake,Illinois,7220 State Park Rd,60020,-88.198259,42.4307092,18,Public,Open: 4/01 Closed: 10/31,4,10,72,6347,128,71.70,72,6156,126,70.80,73,5852,125,73.90
4186,Gold at Green Garden Country Club,Frankfort,Illinois,9511 W Manhattan Monee Rd,60423,-87.839278,41.4214674,18,Public,year round,1,12,72,6519,116,70.20,72,6184,112,68.20,72,5442,115,70.20
4187,Blue at Green Garden Country Club,Frankfort,Illinois,9511 W Manhattan Monee Rd,60423,-87.839278,41.4214674,18,Public,year round,1,12,72,6637,112,70.20,72,6287,110,68.20,72,5557,110,69.50
4189,Prestwick Country Club,Frankfort,Illinois,601 Prestwick Dr,60423,-87.7947397,41.4959049,18,Private,Open: 3/01 Closed: 11/30,3,11,72,6810,131,72.60,72,6432,127,71.10,72,5754,128,73.80
4191,Freeport Country Club,Freeport,Illinois,1614 S Park Blvd,61032,-89.6517688,42.2871287,18,Private,Open: 4/01 Closed: 10/31,4,10,70,6366,122,70.80,70,6143,120,69.70,70,5293,118,70.30
4195,South at Eagle Ridge Inn & Resort,Galena,Illinois,10 Club House Dr,61036,-90.3379422,42.3904022,18,Resort,Open: 4/01 Closed: 10/31,4,10,72,6762,134,72.70,72,6361,130,70.90,72,5609,129,72.30
4196,General at Eagle Ridge Inn & Resort,Galena,Illinois,10 Club House Dr,61036,-90.3379422,42.3904022,18,Resort,Open: 4/01 Closed: 10/31,4,10,72,6820,137,73.80,72,6434,130,71.90,72,5335,128,71.81
4197,Galena Golf Club,Galena,Illinois,Hwy 20 W,61036,-90.43761169999999,42.4158291,18,Semi-Private,Open: 4/01 Closed: 10/31,4,10,71,6607,116,70.20,71,6334,113,69.00,74,5399,116,71.10
4198,North at Eagle Ridge Inn & Resort,Galena,Illinois,10 Club House Dr,61036,-90.3379422,42.3904022,18,Resort,Open: 4/01 Closed: 10/31,4,10,72,6836,132,73.20,72,6386,127,70.90,72,5578,125,72.10
4200,Lake Bracken Country Club,Galesburg,Illinois,Rural Route 3,61401,-90.3712395,40.94781580000001,18,Private,Open: 3/01 Closed: 12/01,3,11,71,6055,119,69.40,71,5948,117,68.60,72,5143,114,69.60
4201,Soangetaha Country Club,Galesburg,Illinois,Soangetaha Rd,61401,-90.3265509,40.95093560000001,18,Private,Open: 3/01 Closed: 11/01,3,10,72,6463,125,71.10,72,6244,123,70.20,74,5549,123,71.90
4203,Maple Bluff Golf Club,Geneseo,Illinois,19283 E 1600th St,61254,-90.12961,41.4274127,18,Public,Open: 4/01 Closed: 10/31,4,10,72,6492,128,75.70,72,6186,123,74.20,72,4900,112,68.20
4205,Regulation at Mill Creek Golf Club,Geneva,Illinois,39 W 525 Herrington Dr,60134,-88.3864351,41.8675028,18,Public,Open: 4/01 Closed: 11/01,4,10,73,6724,130,72.10,73,6206,124,69.70,73,4833,118,67.50
4207,Eagle Brook Country Club,Geneva,Illinois,2288 Fargo Blvd,60134,-88.3354963,41.875311,18,Private,Open: 4/01 Closed: 11/01,4,10,72,6736,134,72.60,72,6263,129,70.90,72,5266,114,66.60
4209,Oak Club of Genoa,Genoa,Illinois,11770 Ellwood Greens Rd,60135,-88.70857699999999,42.07667300000001,18,Public,Open: 4/15 Closed: 11/30,4,11,72,6990,135,74.60,72,6645,132,73.30,72,5482,127,72.90
4210,Railside Golf Club,Gibson City,Illinois,120 W 19th St,60936,-88.37658569999999,40.4797153,18,Public,Open: 3/01 Closed: 11/15,3,11,72,6755,122,71.60,72,6141,115,68.80,72,5320,114,69.90
4213,Glencoe Golf Club,Glencoe,Illinois,621 Wesley Rd,60022,-87.7824821,42.1445579,18,Public,Open: 3/15 Closed: 11/15,3,11,72,6517,117,70.20,72,6233,115,68.90,73,5713,114,71.13
4214,Lake Shore Country Club,Glencoe,Illinois,1255 Sheridan Rd,60022,-87.76068459999999,42.1516436,18,Private,Open: 4/01 Closed: 10/31,4,10,71,6519,130,71.90,71,6343,127,71.10,75,5826,128,74.20
4215,Skokie Country Club,Glencoe,Illinois,500 Washington Ave,60022,-87.7612596,42.1290343,18,Private,Open: 4/01 Closed: 11/01,4,10,72,6975,133,74.30,72,6545,131,72.50,76,5837,135,74.80
4216,Glendale Lakes Golf Club,Glendale Heights,Illinois,1550 President St,60139,-88.0915156,41.9153876,18,Public,Open: 3/01 Closed: 12/31,3,12,71,6175,121,69.90,71,5898,118,68.70,71,5246,122,70.90
4219,Eighteen Hole at Village Links of Glen Ellyn,Glen Ellyn,Illinois,485 Winchell Way,60137,-88.0691192,41.8517026,18,Public,Open: 4/15 Closed: 11/15,4,11,71,6933,128,73.60,71,6361,123,71.10,73,5753,118,68.30
4222,North Shore Country Club,Glenview,Illinois,1340 Glenview Rd,60025,-87.7937785,42.0727347,18,Private,Open: 3/01 Closed: 12/31,3,12,72,7031,135,74.70,72,6711,132,73.10,76,6010,133,75.20
4225,Glenwoodie Country Club,Glenwood,Illinois,193 N State St,60425,-87.61683529999999,41.5497197,18,Public,year round,1,12,72,6715,120,71.40,72,6425,118,70.10,72,5176,113,68.80
4227,Rolling Hills Golf Club,Godfrey,Illinois,5801 Pierce Ln,62035,-90.2149129,38.94924779999999,18,Public,year round,1,12,71,5687,100,66.10,71,5375,98,64.70,71,4804,101,66.50
4229,Arlington Golf Club,Granite City,Illinois,Rural Route 1,62040,-90.14871989999999,38.7014389,18,Public,year round,1,12,72,6947,127,71.70,72,6520,125,70.30,72,5420,116,70.20
4230,Legacy Golf Course,Granite City,Illinois,3500 Cargill Rd,62040,-90.0835772,38.7221045,18,Public,year round,1,12,71,6414,114,70.40,71,6021,110,68.70,71,5132,110,73.60
4232,Minne Monesse Golf Course,Grant Park,Illinois,15944 E 6Mile Grove Rd,60940,-87.6046582,41.2150214,18,Semi-Private,Open: 4/01 Closed: 10/31,4,10,72,6500,121,71.10,72,6200,119,69.90,72,5256,118,69.50
4234,Willow Glen Golf Course,Great Lakes,Illinois,Bldg 3312 Buckley Rd,60088,-87.87457119999999,42.3087548,18,Military,Open: 4/01 Closed: 11/15,4,11,72,6364,123,70.50,72,6081,120,69.30,73,5178,114,69.80
4238,Bittersweet Golf Club,Gurnee,Illinois,875 Almond,60031,-87.9816724,42.3718689,18,Public,Open: 3/15 Closed: 11/15,3,11,72,6813,130,72.80,72,6316,126,71.10,72,5027,115,69.60
4239,Heather Ridge Golf Course,Gurnee,Illinois,5900 Heather Ridge Dr,60031,-87.9508147,42.3464929,9,Public,year round,1,12,35,3007,110,34.70,35,2811,107,34.10,36,2515,117,35.10
4240,Deer Run Golf Course,Hamilton,Illinois,Deer Run Dr,62341,-91.3410344,40.403938,18,Semi-Private,Open: 3/01 Closed: 11/15,3,11,72,6073,120,69.70,72,5839,118,68.60,73,4990,117,69.30
4243,Oak Grove Golf Course,Harvard,Illinois,16914 Oak Grove Rd,60033,-88.528205,42.46155599999999,18,Public,Open: 3/01 Closed: 11/01,3,10,71,7021,135,74.60,71,6613,130,72.50,71,5254,120,70.10
4245,Lakewood Golf,Havana,Illinois,Route 78,62644,-90.07201830000001,40.2856995,9,Semi-Private,year round,1,12,36,3365,117,35.20,36,3115,114,34.35,36,2600,119,35.70
4250,Red/White at Northmoor Country Club,Highland Park,Illinois,820 Edgewood Rd,60035,-87.7926687,42.1663184,18,Private,Open: 4/01 Closed: 11/01,4,10,71,6677,130,72.30,71,6464,128,71.40,71,5214,119,70.70
4251,Blue/White at Northmoor Country Club,Highland Park,Illinois,820 Edgewood Rd,60035,-87.7926687,42.1663184,18,Private,Open: 4/01 Closed: 11/01,4,10,70,6470,128,71.20,70,6302,127,70.60,70,5026,118,69.50
4252,Highland Park Country Club,Highland Park,Illinois,1201 Park Ave W,60035,-87.8202792,42.189398,18,Public,year round,1,12,71,6506,128,71.50,71,6156,125,69.90,71,5142,120,69.70
4255,Exmoor Country Club,Highland Park,Illinois,700 Vine Ave,60035,-87.8132139,42.1932729,18,Private,Open: 5/01 Closed: 11/01,5,10,72,6864,129,73.00,72,6545,125,71.80,74,5750,124,73.10
4256,Blue/Red at Northmoor Country Club,Highland Park,Illinois,820 Edgewood Rd,60035,-87.7926687,42.1663184,18,Private,Open: 4/01 Closed: 11/01,4,10,71,6759,131,72.60,71,6588,129,71.70,71,5152,119,70.60
4257,Sunset Valley Golf Course,Highland Park,Illinois,1390 Sunset Rd,60035,-87.80892419999999,42.1778928,18,Public,Open: 4/01 Closed: 12/01,4,11,72,6484,123,71.10,72,6216,121,69.90,72,5297,120,70.70
4259,Fresh Meadow Golf Course,Hillside,Illinois,2144 S Wolf Rd,60162,-87.9046329,41.8507097,18,Public,year round,1,12,70,6276,111,69.60,70,5956,108,68.20,72,5491,116,70.00
4261,Ruth Lake Country Club,Hinsdale,Illinois,6200 S Madison St,60521,-87.9390466,41.7795268,18,Private,Open: 3/01 Closed: 11/01,3,10,71,6469,129,71.10,71,6264,126,70.20,74,5750,132,74.50
4263,Poplar Creek Country Club,Hoffman Estates,Illinois,1400 Poplar Creek Dr,60194,-88.1372225,42.0505047,18,Public,Open: 4/01 Closed: 10/31,4,10,70,6311,126,70.20,70,5905,120,68.70,70,5402,115,67.40
4265,Calumet Country Club,Homewood,Illinois,175th & Western Ave,60430,-76.4180681,39.334658,18,Private,Open: 4/15 Closed: 10/15,4,10,71,6559,128,71.90,71,6326,124,70.70,72,5911,130,75.00
4266,Ravisloe Country Club,Homewood,Illinois,179th & Park Ave,60430,-87.90254209999999,41.5638576,18,Private,Open: 3/01 Closed: 11/30,3,11,70,6302,122,70.30,70,5583,114,67.10,71,5973,130,74.90
4269,Pinecrest Golf & Country Club,Huntley,Illinois,11220 Algonquin Rd,60142,-88.41668430000001,42.1763804,18,Public,Open: 3/15 Closed: 11/15,3,11,72,6636,123,71.50,72,6044,118,68.80,72,5061,114,68.70
4270,Itasca Country Club,Itasca,Illinois,400 East Orchard Street,60143,-88.0008352,41.9729558,18,Private,year round,1,12,72,6831,137,73.9,72,6512,133,72.5,72,5062,127,69.8
4271,Eaglewood Resort,Itasca,Illinois,21W240 Nordic Rd,60143,-88.036194,41.9574204,18,Resort,Open: 4/01 Closed: 12/01,4,11,70,5626,108,67.30,70,5420,105,66.10,72,5035,112,69.60
4272,Forest/Prairie at Ivanhoe Club,Ivanhoe,Illinois,28846 N Thorngate Dr,60060,-88.0579176,42.2813622,18,Private,Open: 4/01 Closed: 11/01,4,10,72,7028,135,74.40,72,6561,130,71.90,72,5040,117,69.30
4273,Prairie/Marsh at Ivanhoe Club,Ivanhoe,Illinois,28846 N Thorngate Dr,60060,-88.0579176,42.2813622,18,Private,Open: 4/01 Closed: 11/01,4,10,72,7110,146,75.40,72,6571,137,73.30,72,5625,118,70.60
4274,Forest/Marsh at Ivanhoe Club,Ivanhoe,Illinois,28846 N Thorngate Dr,60060,-88.0579176,42.2813622,18,Private,Open: 4/01 Closed: 11/01,4,10,72,7116,142,75.20,72,6602,136,72.90,72,5015,115,68.30
4278,The Links at Links Golf Course,Jacksonville,Illinois,Nichols Park & Vandalia Rd,62650,-95.97003989999999,35.40483529999999,18,Public,year round,1,12,72,6836,116,71.30,72,6495,113,69.80,72,5309,108,69.00
4281,Jansco's Stardust Golf & Country Club,Johnston City,Illinois,14746 Stardust Dr,62951,-88.9557773,37.8153321,9,Semi-Private,year round,1,12,36,3332,129,35.00,36,3166,118,34.50,36,2578,112,33.40
4289,Lake Calhoun Golf Course,LaFayette,Illinois,16 Golf Rd,61449,-90.0189771,41.1033474,9,Private,Open: 4/01 Closed: 11/01,4,10,36,3095,118,35.00,36,2839,116,34.90,36,2626,116,34.60
4290,Edgewood Valley Country Club,La Grange,Illinois,7500 S Willow Springs Rd,60525,-87.8885341,41.7546362,18,Private,Open: 3/01 Closed: 12/31,3,12,72,6714,133,73.10,72,6431,131,71.60,72,5607,122,67.60
4291,La Grange Country Club,La Grange,Illinois,620 S Brainard Ave,60525,-87.88063690000001,41.800921,18,Private,year round,1,12,71,6685,127,72.40,71,6423,124,71.10,74,5851,120,68.90
4293,Lake Bluff Golf Club,Lake Bluff,Illinois,Green Bay Rd & Route 176,60044,-87.85843709999999,42.681703,18,Public,Open: 4/01 Closed: 12/01,4,11,72,6537,120,71.60,72,6457,119,70.90,72,5629,118,70.90
4295,Knollwood Club,Lake Forest,Illinois,1890 N Waukegan Rd,60045,-87.8749294,42.2738225,18,Private,year round,1,12,72,6920,133,73.80,72,6576,129,72.20,75,5828,133,74.50
4296,Conway Farms Golf Club,Lake Forest,Illinois,405 S Conway Farms Rd,60045,-87.89437459999999,42.2339604,18,Private,Open: 3/01 Closed: 12/01,3,11,71,6733,138,73.50,71,6351,131,71.10,71,5125,120,69.50
4297,Deer Path Golf Course,Lake Forest,Illinois,500 W Deerpath Rd,60045,-87.8588254,42.2500018,18,Public,Open: 3/01 Closed: 11/15,3,11,70,6250,126,69.30,70,6105,124,68.70,72,5454,122,72.10
4298,Onwentsia Club,Lake Forest,Illinois,300 N Green Bay Rd,60045,-87.84727490000002,42.2434798,18,Private,year round,1,12,72,6645,127,71.90,72,6423,125,70.90,72,5473,120,71.10
4300,Boulder Ridge Country Club,Lake in the Hills,Illinois,350 Boulder Dr,60102,-88.3568363,42.1829349,18,Private,Open: 4/01 Closed: 11/15,4,11,72,7003,134,73.90,72,6600,130,71.80,72,5199,119,69.90
4304,Lake Carroll Golf Course,Lanark,Illinois,Ironwood Rd,61046,-89.8562942,42.1734946,18,Semi-Private,Open: 3/01 Closed: 11/25,3,11,72,6418,126,71.20,72,5925,121,68.80,72,5130,120,69.40
4306,Senica's Oak Ridge Golf Club,La Salle,Illinois,658 E Route 6,61301,-89.03891279999999,41.3526858,18,Semi-Private,Open: 3/01 Closed: 11/01,3,10,72,6820,131,72.10,72,6313,126,69.80,73,5397,120,70.30
4308,Locust Hills Golf Club,Lebanon,Illinois,1015 Belleville St,62254,-89.8219776,38.6013789,18,Public,year round,1,12,71,5706,109,68.20,71,5125,105,67.20,71,4361,113,71.00
4309,Red at Cog Hill Golf Club,Lemont,Illinois,12294 Archer Ave,60439,-87.9632304,41.665869,18,Public,year round,1,12,72,6437,117,70.10,72,6193,114,69.10,71,5321,114,69.90
4311,Yellow at Cog Hill Golf Club,Lemont,Illinois,12294 Archer Ave,60439,-87.9632304,41.665869,18,Public,year round,1,12,72,6268,120,69.40,72,5951,118,68.40,72,5564,120,72.30
4313,Blue at Cog Hill Golf Club,Lemont,Illinois,12294 Archer Ave,60439,-87.9632304,41.665869,18,Public,year round,1,12,71,6329,117,69.60,71,6024,114,68.30,72,5594,118,71.30
4314,Dubsdread at Cog Hill Golf Club,Lemont,Illinois,12294 Archer Ave,60439,-87.9632304,41.665869,18,Public,year round,1,12,72,6940,142,75.60,72,6347,138,71.80,72,5889,134,76.70
4316,Ruffled Feathers Golf Club,Lemont,Illinois,1 Pete Dye Dr,60439,-87.9608868,41.6599104,18,Semi-Private,Open: 4/01 Closed: 11/01,4,10,72,6878,134,73.10,72,6369,127,70.90,72,5273,123,70.70
4317,Wolf Hollow at Lena Golf Club,Lena,Illinois,621 W Lena St,61048,-89.8315499,42.3859818,18,Semi-Private,Open: 3/01 Closed: 10/31,3,10,71,6408,120,70.10,71,6096,117,68.70,70,5003,112,68.10
4320,Merit Club,Libertyville,Illinois,1500 Merit Club Ln,60048,-87.9556997,42.3355426,18,Private,Open: 4/01 Closed: 10/31,4,10,72,6960,129,73.40,72,6540,123,71.30,72,5194,121,71.40
4323,Marriott's Lincolnshire Resort,Lincolnshire,Illinois,10 Marriott Dr,60069,-87.92570429999999,42.1964721,18,Resort,Open: 4/15 Closed: 10/31,4,10,70,6290,129,71.10,70,5949,126,69.50,69,4728,117,68.90
4324,Bryn Mawr Country Club,Lincolnwood,Illinois,6600 N Crawford Ave,60629,-87.7299932,42.0016886,18,Private,Open: 4/01 Closed: 10/31,4,10,72,6548,127,71.50,72,6390,126,71.10,74,5880,125,73.70
4325,River Bend Golf Course,Lisle,Illinois,5900 S Route 53,60532,-88.07351450000002,41.7797119,9,Public,Open: 3/15 Closed: 10/15,3,10,36,3238,126,35.40,36,3011,119,34.40,36,2667,118,35.10
4327,South/East at Broken Arrow Golf Club,Lockport,Illinois,16325 W Broken Arrow Dr,60441,-88.01456759999999,41.5767482,18,Public,year round,1,12,72,6756,129,73.60,72,6290,125,71.30,72,5125,121,70.40
4328,East/North at Broken Arrow Golf Club,Lockport,Illinois,16325 W Broken Arrow Dr,60441,-88.01456759999999,41.5767482,18,Public,year round,1,12,72,6865,131,74.10,72,6432,122,70.40,72,5163,121,70.30
4329,North/South at Broken Arrow Golf Club,Lockport,Illinois,16325 W Broken Arrow Dr,60441,-88.01456759999999,41.5767482,18,Public,year round,1,12,72,6897,131,73.90,72,6446,122,70.30,72,5178,121,70.50
4330,Prairie Bluff Golf Club,Lockport,Illinois,19433 Renwick Rd,60441,-88.0906993,41.5942836,18,Public,Open: 4/01 Closed: 11/15,4,11,72,6857,122,72.10,72,6533,118,70.10,72,5338,115,70.10
4331,Big Run Golf Club,Lockport,Illinois,17211 W 135th St,60441,-88.03834499999999,41.640082,18,Public,Open: 4/01 Closed: 11/30,4,11,72,7010,142,74.20,72,6690,138,72.70,74,5975,135,74.60
4334,Old Oak Country Club,Lockport,Illinois,143rd & Parker Rd,60441,-87.8571896,41.6324201,18,Public,Open: 4/01 Closed: 12/15,4,12,71,6535,122,69.80,71,6241,118,68.20,72,5274,114,67.50
4338,Hillcrest Country Club,Long Grove,Illinois,3217 RFD,60047,-88.0053787,42.1726799,18,Private,Open: 4/01 Closed: 12/01,4,11,72,7019,133,74.20,72,6724,130,72.60,74,5764,128,72.20
4339,Kemper Lakes Golf Club,Long Grove,Illinois,Old McHenry Rd,60049,-88.0058938,42.1849203,18,Public,Open: 4/01 Closed: 11/09,4,11,72,7217,143,75.90,72,6680,139,73.40,72,5638,126,68.10
4340,Royal Melbourne,Long Grove,Illinois,Royal Melbourne Blvd,60047,-87.99750000000002,42.2025,18,Private,Open: 4/01 Closed: 11/15,4,11,72,6731,138,73.50,72,6238,133,71.40,72,5153,127,71.10
4341,Red at Twin Orchard Country Club,Long Grove,Illinois,22353 Old McHenry Rd,60047,-87.9976626,42.1868335,18,Private,Open: 5/01 Closed: 12/01,5,11,72,6697,128,72.40,72,6442,126,71.20,72,5916,121,68.80
4343,Macomb Country Club,Macomb,Illinois,Hickory Grove Rd,61455,-90.66698009999999,40.4774379,18,Semi-Private,Open: 3/15 Closed: 11/15,3,11,71,6335,127,70.80,71,6112,124,69.80,72,5521,118,70.00
4344,O. L. Champion Golf Course at Western University,Macomb,Illinois,One University Circle,61455,-90.6844012,40.4761742,9,Public,Open: 3/01 Closed: 11/01,3,10,36,3209,120,35.90,36,3005,118,34.70,36,2625,117,34.10
4345,Gateway National Golf Links,Madison,Illinois,18 Golf Dr,62060,-90.1394435,38.6596595,18,Public,year round,1,12,71,7178,138,75.00,71,7092,138,74.60,71,6154,126,70.10
4347,Lake of The Woods at Lake of the Woods Golf Club,Mahomet,Illinois,405 N Lake Of The Woods Rd,61853,-88.3773369,40.20415620000001,18,Public,Open: 3/01 Closed: 11/30,3,11,72,6520,118,70.80,72,6044,114,68.60,72,5187,112,69.10
4350,Manteno Golf Club,Manteno,Illinois,N 4000 E Rd,60950,-87.7999484,41.2512341,18,Public,year round,1,12,72,6435,118,70.10,72,6230,115,69.10,72,5145,112,68.50
4352,Marengo Ridge Golf & Country Club,Marengo,Illinois,9508 Harmony Hill Rd,60152,-88.55745,42.191966,18,Public,Open: 3/01 Closed: 12/25,3,12,72,6636,128,71.90,72,6293,124,70.50,73,5392,125,71.50
4353,Kokopelli Golf Course,Marion,Illinois,1401 Champions Dr,62959,-88.96234659999999,37.7501267,18,Semi-Private,year round,1,12,72,7150,139,75.20,72,6821,135,73.70,72,6050,128,70.20
4355,Lake of Egypt Country Club,Marion,Illinois,1180 Clubhouse Rd,62959,-88.94948169999999,37.6117523,9,Private,Open: 2/15 Closed: 11/25,2,11,36,2929,117,34.00,36,2710,105,33.00,36,2218,94,30.70
4360,Meadowview Golf Course,Mattoon,Illinois,6489 Meadow View Ln,61938,-88.3515771,39.4214429,18,Public,Open: 2/01 Closed: 11/30,2,11,72,6907,121,72.60,72,6438,116,70.30,72,5559,117,71.30
4361,Mattoon Golf & Country Club,Mattoon,Illinois,Country Club Rd,61938,-88.33752989999999,39.4766647,18,Private,Open: 3/01 Closed: 11/30,3,11,72,6690,127,71.10,72,6450,125,70.10,73,5895,125,72.60
4363,Blue at Boone Creek Golf Course,McHenry,Illinois,6912 Mason Hill Rd,60050,-88.3341142,42.307517,18,Public,Open: 3/01 Closed: 11/30,3,11,71,6524,114,69.50,71,6062,108,67.10,71,5213,110,68.60
4364,Red at Boone Creek Golf Course,McHenry,Illinois,6912 Mason Hill Rd,60050,-88.3341142,42.307517,9,Public,Open: 3/01 Closed: 11/30,3,11,35,2903,110,33.40,35,2635,107,32.60,35,2367,106,33.00
4366,Edgewood Park Golf Club,Mc Nabb,Illinois,Route 89,61335,-89.2062368,41.1761787,18,Semi-Private,Open: 4/01 Closed: 11/01,4,10,72,6660,117,70.90,72,6486,115,70.10,74,5780,118,72.00
4368,Medinah #d at Medinah Country Club,Medinah,Illinois,6N001 Medinah Rd,60157,-88.0480444,41.9663804,18,Private,Open: 4/01 Closed: 11/01,4,10,72,7401,149,77.10,72,7056,143,75.40,72,6776,137,73.90
4369,Medinah #b at Medinah Country Club,Medinah,Illinois,6N001 Medinah Rd,60157,-88.0480444,41.9663804,18,Private,Open: 4/01 Closed: 11/01,4,10,71,6713,135,72.90,71,6591,133,72.30,74,6224,137,75.40
4370,Mendota Golf Course,Mendota,Illinois,Hwy 34 W,61342,-89.1085253,41.554991,18,Semi-Private,Open: 4/01 Closed: 11/01,4,10,70,6176,117,69.50,70,5732,114,67.40,70,4898,115,67.90
4371,Metropolis Country Club,Metropolis,Illinois,1256 Country Club Rd,62960,-88.6984775,37.1909034,18,Private,Open: 4/01 Closed: 10/15,4,10,70,6128,121,68.50,70,5849,118,67.00,73,5094,110,68.70
4372,Midlothian Country Club,Midlothian,Illinois,147th & LaVergne,60445,-87.6360296,41.6228617,18,Private,Open: 5/01 Closed: 10/15,5,10,71,6661,132,72.40,71,6443,129,71.40,73,6091,133,73.90
4374,Pinnacle Country Club,Milan,Illinois,11928 Knoxville Rd,61264,-90.53484499999999,41.402282,18,Private,Open: 4/01 Closed: 11/15,4,11,71,6744,126,72.10,71,6280,119,69.30,73,5029,116,68.90
4383,Nettle Creek,Morris,Illinois,5355 N Saratoga Rd,60450,-88.47910979999999,41.3599362,18,Public,Open: 4/01 Closed: 11/30,4,11,71,6474,117,70.30,71,6129,114,69.10,71,5059,114,68.90
4384,Morris Country Club,Morris,Illinois,2615 W Route 6,60450,-88.47098319999999,41.3674775,18,Private,Open: 4/01 Closed: 11/01,4,10,71,6060,119,69.10,71,5206,114,66.50,71,4872,112,66.30
4386,Cross Creek Golf Course,Morrison,Illinois,15523 Henry Rd,61270,-90.0019734,41.8058102,9,Semi-Private,Open: 3/01 Closed: 11/01,3,10,36,2941,103,33.30,36,2863,100,32.50,36,2441,102,33.10
4389,Mt. Carmel Municipal Golf Course,Mount Carmel,Illinois,Park Rd & Route 3,62863,-80.8522686,35.1391245,18,Public,year round,1,12,71,6121,123,69.20,71,5845,119,67.90,72,5504,102,69.60
4391,Sunset Golf Course,Mount Morris,Illinois,Top of the Hill Sunset Ln,61054,-89.4396081,42.0558179,9,Semi-Private,Open: 4/01 Closed: 11/01,4,10,36,3160,114,35.60,36,2903,109,34.50,36,2634,114,35.30
4392,Mt Prospect Golf Club,Mount Prospect,Illinois,600 S See-Gwun Ave,60056,-87.94978069999999,42.0551148,18,Public,Open: 4/01 Closed: 11/30,4,11,71,6216,124,70.10,71,5935,121,68.80,73,5355,118,70.60
4393,Old Orchard Country Club,Mount Prospect,Illinois,700 W Rand Rd,60056,-87.94565759999999,42.09099579999999,18,Public,Open: 3/15 Closed: 11/30,3,11,70,6077,130,70.10,70,5731,127,68.70,72,5336,122,71.10
4395,Green Hills Golf Club,Mount Vernon,Illinois,Old Fairfield Rd,62864,-88.8322938,38.339683,18,Semi-Private,Open: 2/01 Closed: 11/01,2,10,71,6490,122,70.30,71,6012,118,68.20,71,4960,120,67.70
4399,Steeple Chase Golf Club,Mundelein,Illinois,200 N La Vista,60060,-88.0543047,42.2637514,18,Public,Open: 3/15 Closed: 12/01,3,11,72,6827,129,73.10,72,6466,128,71.60,72,4831,113,68.10
4401,East at Countryside Golf Course,Mundelein,Illinois,20800 Hawley St,60060,-88.0404322,42.2662976,18,Public,year round,1,12,72,6757,123,71.50,72,6276,119,69.60,72,5050,114,68.30
4402,Four Winds Golf Course,Mundelein,Illinois,23110 W Hwy 176,60060,-88.084014,42.266911,18,Public,year round,1,12,71,6501,122,71.50,71,5884,117,68.30,71,4943,114,68.50
4404,Pine Meadow Golf Club,Mundelein,Illinois,1 Pine Meadow Ln,60060,-87.9845034,42.2909469,18,Public,Open: 3/01 Closed: 11/30,3,11,71,7141,138,74.60,71,6877,135,73.40,72,5203,125,70.90
4406,Jackson Country Club,Murphysboro,Illinois,Country Club Rd,62966,-89.281015,37.7548728,18,Private,year round,1,12,71,6014,124,69.00,71,5779,122,68.00,72,4885,116,66.20
4407,White/Blue at White Eagle Golf Club,Naperville,Illinois,3400 Club Dr,60564,-88.2159133,41.7229724,18,Private,Open: 4/01 Closed: 10/31,4,10,72,7048,138,74.30,72,6513,131,71.50,72,5227,124,70.40
4408,Blue/Red at White Eagle Golf Club,Naperville,Illinois,3400 Club Dr,60564,-88.2159133,41.7229724,18,Private,Open: 4/01 Closed: 10/31,4,10,72,7076,139,74.50,72,6531,132,71.70,72,5048,124,70.40
4409,Country Lakes Golf Club,Naperville,Illinois,1601 Fairway Dr,60563,-88.21565749999999,41.796301,18,Public,year round,1,12,73,6875,121,71.90,73,6519,119,70.50,76,6062,124,72.90
4410,Cress Creek Country Club,Naperville,Illinois,1215 Royal Saint George Dr,60563,-88.1647835,41.7909622,18,Private,Open: 4/01 Closed: 11/01,4,10,72,6628,122,71.60,72,6348,120,70.10,72,5225,129,73.60
4411,Naperville Country Club,Naperville,Illinois,25W57 Chicago Ave,60540,-88.1191856,41.7772137,18,Private,Open: 5/01 Closed: 10/31,5,10,71,6456,131,71.10,71,6207,125,70.50,71,5601,126,73.60
4412,Springbrook Golf Course,Naperville,Illinois,2220 W 83rd St,60564,-88.19164789999999,41.732238,18,Public,Open: 4/01 Closed: 12/01,4,11,72,6913,124,72.60,72,6405,121,70.60,73,6112,125,72.70
4413,Tamarack Golf Club,Naperville,Illinois,24032 Royal Worlington Dr,60564,-88.20632239999999,41.690613,18,Semi-Private,Open: 3/01 Closed: 12/31,3,12,70,6955,131,74.20,70,6331,125,70.90,70,5016,110,64.50
4414,Red/White at White Eagle Golf Club,Naperville,Illinois,3400 Club Dr,60564,-88.2159133,41.7229724,18,Private,Open: 4/01 Closed: 10/31,4,10,72,7211,135,74.40,72,6678,127,71.80,72,5171,119,69.50
4416,Great River Road Golf Club,Nauvoo,Illinois,771 E County Rd 1850,62354,-91.35017479999999,40.470531,18,Public,Open: 3/01 Closed: 12/31,3,12,65,6200,121,71.10,65,6110,118,70.00,69,5840,117,71.00
4417,Sanctuary Golf Club,New Lenox,Illinois,485 N Marley Rd,60451,-87.94345709999999,41.5227333,18,Public,Open: 3/01 Closed: 11/30,3,11,72,6701,122,71.20,72,6342,120,70.50,72,5120,118,70.10
4420,Illinois State University Golf Course,Normal,Illinois,Gregory St,61761,-89.00632639999999,40.5171508,18,Public,Open: 4/01 Closed: 12/15,4,12,71,6532,120,71.50,71,6081,116,68.70,73,5581,119,71.89
4421,Ironwood Golf Course,Normal,Illinois,1901 N Towanda Ave,61761,-88.96665879999999,40.5408676,18,Public,Open: 3/15 Closed: 11/30,3,11,72,6960,122,72.50,72,6456,118,70.30,72,5580,113,69.90
4424,Wynstone Golf Club,North Barrington,Illinois,One Wynstone Dr,60010,-88.1163131,42.2190958,18,Private,Open: 3/01 Closed: 1/31,3,01,72,7003,142,74.90,72,6554,137,72.40,72,5260,129,71.20
4426,Willow Hill Golf Course,Northbrook,Illinois,1350 Willow Rd,60062,-87.8124488,42.105857,9,Public,Open: 3/01 Closed: 12/15,3,12,34,2840,109,33.40,34,2550,105,32.20,34,2100,103,32.10
4427,Green Acres Country Club,Northbrook,Illinois,916 Dundee Rd,60062,-87.802917,42.1391107,18,Private,Open: 4/01 Closed: 11/01,4,10,72,6714,128,72.90,72,6449,125,71.80,71,5522,124,72.50
4428,Mission Hills Country Club,Northbrook,Illinois,1677 W Mission Hills Rd,60062,-87.87293799999999,42.120624,18,Private,Open: 3/15 Closed: 11/30,3,11,70,6186,124,70.10,70,5899,121,68.80,72,5325,122,70.80
4429,Eighteen Hole at Sportsman's Country Club,Northbrook,Illinois,3535 Dundee Rd,60062,-87.8660235,42.1337896,18,Public,Open: 3/01 Closed: 12/15,3,12,70,6354,124,70.70,70,6099,119,69.40,72,5500,122,71.90
4432,Regulation at Sunset Ridge Country Club,Northfield,Illinois,2100 Sunset Ridge Rd,60093,-87.7919344,42.1164138,18,Private,Open: 4/01 Closed: 10/15,4,10,71,6799,129,73.10,71,6560,126,71.80,76,6073,129,74.70
4433,Riverside Golf Club,North Riverside,Illinois,2520 Des Plaines Ave,60546,-87.82596290000001,41.8444599,18,Private,Open: 3/01 Closed: 12/31,3,12,71,6661,130,73.10,71,6371,126,71.20,73,5718,125,73.40
4436,Willow Crest Golf Club,Oak Brook,Illinois,3500 Midwest Rd,60523,-87.9722218,41.821283,18,Resort,Open: 4/01 Closed: 11/15,4,11,70,6397,130,70.90,70,5925,125,68.90,70,4952,120,68.70
4437,Butler National Golf Club,Oak Brook,Illinois,2616 York Rd,60523,-87.93340219999999,41.8405585,18,Private,Open: 4/01 Closed: 11/30,4,11,72,7335,144,76.60,72,6864,142,74.40,72,6365,134,71.80
4439,Oak Brook Golf Club,Oak Brook,Illinois,2606 York Rd,60523,-87.9306778,41.8411885,18,Public,Open: 3/01 Closed: 10/31,3,10,72,6541,126,71.10,72,6132,122,69.20,72,5341,120,70.70
4442,Stoney Creek Golf Course & Range,Oak Lawn,Illinois,5850 W 103rd St,60453,-87.7673609,41.7063934,18,Public,Open: 4/01 Closed: 12/01,4,11,65,5004,103,62.50,65,4424,96,60.90,65,3570,95,59.40
4443,Tamarack Country Club,O Fallon,Illinois,800 Tamarack Ln,62269,-89.914355,38.56654400000001,18,Public,year round,1,12,71,6400,106,68.20,71,6282,103,66.80,74,5120,104,67.70
4444,Deer Park Country Club,Oglesby,Illinois,100 Deer Park Ln,61348,-89.0373489,41.3087209,18,Private,Open: 3/01 Closed: 12/15,3,12,71,6378,120,70.60,71,6113,116,68.80,71,5425,117,69.90
4447,Richland Country Club,Olney,Illinois,Rural Route 6,62450,-89.2784317,41.3648752,18,Semi-Private,Open: 3/15 Closed: 12/31,3,12,71,6156,133,71.00,71,5814,129,69.50,70,4909,116,68.00
4449,North at Olympia Fields Country Club,Olympia Fields,Illinois,2800 Country Club Dr,60461,-87.685535,41.521831,18,Private,Open: 4/01 Closed: 11/01,4,10,71,6915,141,74.10,71,6676,136,72.70,74,5722,131,72.50
4451,Silver Ridge Golf Club,Oregon,Illinois,3069 N Hill Rd,61061,-89.35215199999999,42.057424,18,Semi-Private,Open: 3/01 Closed: 11/30,3,11,72,6614,116,71.20,72,6130,111,69.50,72,5181,106,72.00
4452,Oregon Country Club,Oregon,Illinois,Daysville Rd & Hwy 64,61061,-77.2945041,39.4899054,9,Private,year round,1,12,35,2901,119,67.80,35,2747,115,66.50,35,2343,111,67.10
4457,Crystal Tree Golf & Country Club,Orland Park,Illinois,14500 Crystal Tree Dr,60462,-87.8755606,41.62737509999999,18,Private,Open: 3/01 Closed: 10/30,3,10,72,6592,136,72.50,72,6113,129,70.30,72,5168,125,70.90
4458,North at Silver Lake Country Club,Orland Park,Illinois,147th & 82nd Ave,60462,-87.6360296,41.6228617,18,Public,year round,1,12,72,6826,116,71.90,72,6485,112,70.40,76,5659,116,72.50
4459,Fox Bend Golf Course,Oswego,Illinois,Route 34,60543,-88.34665020000001,41.6853965,18,Public,Open: 3/01 Closed: 12/31,3,12,72,6760,124,72.10,72,6480,121,70.80,72,5325,116,70.10
4463,Inverness Golf Course,Palatine,Illinois,102 N Roselle Rd,60067,-88.07812249999999,42.1106726,18,Private,Open: 3/01 Closed: 1/30,3,01,72,6750,134,72.90,72,6424,131,71.40,72,5791,132,73.90
4464,Palatine Hills Golf Course,Palatine,Illinois,512 W NW Hwy,60067,-88.0565606,42.1247081,18,Public,Open: 4/01 Closed: 11/30,4,11,72,6800,120,71.60,72,6520,118,70.40,72,5975,119,73.20
4466,Terry Park Golf Course,Palmyra,Illinois,Rural Route 1,62674,-89.9959401,39.4347699,9,Public,year round,1,12,35,2814,100,33.20,35,2612,96,32.30,36,2227,95,32.40
4468,Palos Hills Golf Club,Palos Hills,Illinois,7301 W 105th St,60465,-87.80083499999999,41.7009663,9,Public,year round,1,12,35,2838,119,33.70,35,2610,113,33.10,35,2198,108,32.90
4471,Oak Terrace Golf Course,Pana,Illinois,100 Beyers Lk,62557,-89.0692832,39.3234037,18,Public,Open: 3/01 Closed: 12/20,3,12,72,6375,112,70.10,72,5805,108,67.70,72,4898,107,67.80
4476,Park Ridge Country Club,Park Ridge,Illinois,636 N Prospect Ave,60068,-87.830967,42.0196088,18,Private,year round,1,12,70,6517,122,71.20,70,6321,122,70.10,73,5419,130,74.60
4480,Pekin Country Club,Pekin,Illinois,310 Country Club Dr,61554,-89.58831529999999,40.5729018,18,Private,year round,1,12,72,6832,124,72.20,72,6549,123,71.10,72,5667,125,72.90
4481,Lick Creek Golf Course,Pekin,Illinois,2210 N Parkway Dr,61554,-89.616226,40.5875536,18,Public,Open: 4/01 Closed: 11/15,4,11,72,6909,128,72.80,72,6522,124,71.10,73,5681,125,72.90
4482,Championship at Sunset Hills Country Club,Pekin,Illinois,1620 Summit Dr,61554,-89.6129143,40.5435781,18,Private,year round,1,12,71,6604,128,72.10,71,6254,124,70.30,74,5530,124,71.90
4485,WeaverRidge Golf Club,Peoria,Illinois,5100 Weaver Ridge Blvd,61615,-89.6523002,40.7491497,18,Public,Open: 4/01 Closed: 10/31,4,10,72,7030,136,73.10,72,6543,131,71.10,72,5046,115,68.90
4486,Country Club of Peoria,Peoria,Illinois,4700 N Grandview Dr,61614,-89.5603752,40.739099,18,Private,Open: 3/15 Closed: 11/15,3,11,72,6229,124,70.40,72,6036,122,69.50,72,5227,118,70.00
4488,Leo Donovan Golf Course,Peoria,Illinois,5805 N Knoxville Ave,61614,-89.598373,40.7573178,18,Public,Open: 3/01 Closed: 11/30,3,11,71,6308,106,68.70,71,6168,105,68.10,73,5786,115,71.90
4489,Newman Golf Course,Peoria,Illinois,2021 W Nebraska Ave,61604,-89.6238989,40.7112908,18,Public,Open: 3/01 Closed: 12/01,3,11,71,6838,126,73.80,71,6467,122,71.90,74,5826,125,72.80
4490,Eighteen Hole at Kellogg Golf Course,Peoria,Illinois,7716 N Radnor Rd,61615,-89.6499379,40.7817786,18,Public,Open: 3/01 Closed: 11/30,3,11,72,6735,122,71.70,72,6370,118,70.10,72,5675,123,72.40
4491,Madison Golf Course,Peoria,Illinois,2735 Martin Luther King Jr Dr,61604,-89.6371789,40.6826276,18,Public,year round,1,12,69,5476,96,64.50,69,5332,92,63.80,69,5120,100,67.70
4492,Mt Hawley Country Club,Peoria,Illinois,7724 N Knoxville Ave,61614,-89.597579,40.78125,18,Private,Open: 3/01 Closed: 12/31,3,12,72,6361,128,70.80,72,6067,124,69.40,75,5332,117,70.50
4495,Shambolee Golf Club,Petersburg,Illinois,Rural Route 1,62675,-89.8481652,40.0117151,18,Semi-Private,year round,1,12,72,6748,119,72.10,72,6368,116,70.10,72,5155,114,69.10
4497,Wedgewood Golf Course,Plainfield,Illinois,Route 59 & Caton Farm Rd,60544,-88.2035834,42.0000854,18,Public,Open: 4/01 Closed: 12/15,4,12,72,6836,119,72.00,72,6519,118,70.50,72,6051,123,73.80
4498,"Links at Carillon, The",Plainfield,Illinois,21200 W Carillon Dr,60544,-88.14093849999999,41.6383838,18,Public,Open: 4/01 Closed: 11/01,4,10,71,6829,121,71.10,71,6409,117,69.60,71,5344,114,69.10
4504,Byron Hills Golf Course,Port Byron,Illinois,23316 94th Ave No,61275,-90.30113600000001,41.609088,18,Public,Open: 3/15 Closed: 11/15,3,11,71,6441,115,70.50,71,6017,113,69.10,71,5258,112,69.60
4505,Prairie Isle Golf Club,Prairie Grove,Illinois,2216 Route 176,60012,-88.2405703,42.2673778,18,Public,year round,1,12,72,6562,124,70.80,72,6196,121,69.80,73,5398,117,71.30
4506,Bureau Valley Country Club,Princeton,Illinois,Route 4,61356,-89.465254,41.395022,18,Private,Open: 3/15 Closed: 11/01,3,10,72,6337,125,70.50,72,6030,122,69.20,72,5052,118,69.10
4509,Rob Roy Golf Course,Prospect Heights,Illinois,505 E Camp McDonald Rd,60070,-87.92353519999999,42.0948456,9,Public,Open: 4/01 Closed: 11/30,4,11,36,3022,119,37.80,36,2868,113,35.40,36,2433,109,33.90
4510,Nine Hole at Westview Golf Course,Quincy,Illinois,S 36th St,62301,-91.35854599999999,39.9141655,9,Public,year round,1,12,35,3057,112,34.40,35,2933,111,33.80,35,2685,113,35.10
4513,Quincy Country Club,Quincy,Illinois,24th & State St,62301,-122.4184682,37.7522505,18,Private,year round,1,12,70,6445,116,70.60,70,6149,113,69.20,73,5503,117,70.90
4514,Spring Lake Country Club,Quincy,Illinois,Rural Route 2 N 12th St,62301,-91.39650429999999,39.9318393,18,Private,Open: 3/01 Closed: 11/30,3,11,72,6443,112,70.20,72,6028,110,68.50,74,5407,115,70.40
4515,Eighteen at Westview Golf Course,Quincy,Illinois,S 36th St,62301,-91.35854599999999,39.9141655,18,Public,year round,1,12,71,6400,116,70.10,71,6000,112,68.40,71,5331,114,70.20
4517,Willow Pond Golf Course,Rantoul,Illinois,808 Golf Course Rd,61866,-88.134682,40.296874,18,Public,Open: 3/01 Closed: 11/15,3,11,72,6826,115,71.80,72,6555,112,70.70,72,5553,114,71.90
4522,Urban Hills Country Club,Richton Park,Illinois,23520 Crawford Ave,60471,-87.7113869,41.4597852,18,Semi-Private,year round,1,12,71,6650,114,71.10,71,6266,111,69.10,71,5266,110,69.10
4524,Joe Louis Golf Club,Riverdale,Illinois,13100 S Hallstead,60827,-87.6419647,41.65636190000001,18,Public,Open: 4/01 Closed: 11/01,4,10,72,6869,123,71.70,72,6391,117,69.70,72,5228,115,68.60
4525,Oak Park Country Club,River Grove,Illinois,2001Thatcher Rd,60171,-87.82728999999999,41.9176135,18,Private,Open: 3/01 Closed: 11/01,3,10,72,6757,132,72.70,72,6464,129,71.40,72,5988,134,74.90
4526,Deerfield Golf Club,Riverwoods,Illinois,1201 Saunders Rd,60015,-87.8797914,42.1751264,18,Public,Open: 4/01 Closed: 12/01,4,11,72,6756,125,71.80,72,6496,122,70.90,74,5635,121,71.90
4528,Oak Glen Golf Course,Robinson,Illinois,Story Rd,62454,-87.7391935,39.0053201,18,Public,Open: 4/01 Closed: 11/01,4,10,71,6086,118,67.70,71,5857,112,67.60,71,4998,108,67.90
4529,Quail Creek Country Club & Resort,Robinson,Illinois,1010 E Highland Ave,62454,-87.72704990000001,39.0220772,18,Semi-Private,Open: 3/01 Closed: 11/30,3,11,72,6602,128,72.40,72,6182,123,70.50,72,5091,117,70.10
4532,Aldeen Golf Club,Rockford,Illinois,1900 Reid Farm Rd,61107,-88.9878001,42.2932835,18,Public,Open: 4/01 Closed: 11/15,4,11,72,7058,130,73.90,72,6418,124,70.90,72,5038,116,69.20
4534,Forest Hills Country Club,Rockford,Illinois,5135 Forest Hills Rd,61114,-89.0461856,42.29949879999999,18,Private,Open: 4/01 Closed: 10/31,4,10,72,6650,137,72.90,72,6229,132,70.90,73,5319,128,71.40
4536,Mauh-Nah-Tee-See Country Club,Rockford,Illinois,5151 Guilford Rd,61107,-89.0176944,42.2794556,18,Private,Open: 3/01 Closed: 11/30,3,11,71,6419,133,72.00,71,6091,130,70.60,74,5658,131,73.70
4537,Rockford Country Club,Rockford,Illinois,2500 Oxford St,61103,-89.07167,42.3051991,18,Private,Open: 3/01 Closed: 11/01,3,10,71,6626,124,71.90,71,6330,123,70.40,72,5692,125,74.60
4540,Atwood Homestead Golf Course,Rockford,Illinois,8990 Old River Rd,61103,-89.0537655,42.3924054,18,Public,Open: 4/01 Closed: 11/01,4,10,72,7470,120,74.30,72,6625,117,70.10,72,5818,116,72.60
4541,Highland Springs Municipal Golf Course,Rock Island,Illinois,9500 35th St W,61201,-90.6188049,41.4266929,18,Public,Open: 4/01 Closed: 11/01,4,10,72,6800,125,71.70,72,6471,122,70.20,72,5930,118,69.90
4542,Rock Island Arsenal Golf Club,Rock Island,Illinois,Rock Island Arsenal,61201,-90.5472089,41.5177801,18,Private,Open: 3/01 Closed: 11/01,3,10,71,6272,121,70.50,71,5594,114,67.10,73,5549,117,71.40
4547,Mistwood Golf Course,Romeoville,Illinois,1700 W Renwick Rd,60446,-88.1433971,41.5955227,18,Semi-Private,Open: 3/15 Closed: 11/15,3,11,72,6727,132,72.10,72,6421,129,70.80,72,5231,121,69.30
4548,Ledges Golf Club,Roscoe,Illinois,7111 McCurry Rd,61073,-88.974566,42.441073,18,Public,Open: 4/01 Closed: 10/31,4,10,72,6740,129,72.50,72,6417,124,71.10,72,5969,129,74.10
4553,Pheasant Run Resort,Saint Charles,Illinois,4051 E Main St,60174,-88.2550915,41.9187028,18,Resort,Open: 3/01 Closed: 12/01,3,11,71,6315,123,70.40,71,5985,120,69.10,73,5452,120,71.10
4554,Black Hawk Golf Club,Saint Charles,Illinois,5 N 748 Burr Rd,60175,-88.3653882,41.9509171,18,Public,Open: 3/01 Closed: 10/31,3,10,72,6547,132,72.50,72,6213,129,70.80,72,5111,124,70.90
4555,Pottawatomie Golf Club,Saint Charles,Illinois,845 N Second Ave,60174,-88.3151232,41.9206621,9,Public,Open: 3/01 Closed: 12/23,3,12,35,3005,116,34.10,35,2742,111,33.10,37,2546,113,34.60
4556,St. Charles Country Club,Saint Charles,Illinois,1250 Country Club Rd,60174,-88.301873,41.9411948,18,Private,year round,1,12,72,6906,130,72.90,72,6587,127,71.40,74,5836,128,73.70
4557,Royal Fox Golf Club,Saint Charles,Illinois,4405 Royal And Ancient Dr,60174,-88.27117179999999,41.9455411,18,Private,Open: 4/01 Closed: 11/01,4,10,71,6816,132,73.10,71,6289,125,70.70,71,5225,118,70.30
4560,Salem Country Club,Salem,Illinois,700 Divot Dr,62881,-88.93719999999999,38.6122087,18,Private,year round,1,12,72,6437,122,69.00,72,6122,120,68.00,73,5278,119,69.80
4562,Edgebrook Country Club,Sandwich,Illinois,2100 Suydam Rd,60548,-88.64954499999999,41.6519157,18,Semi-Private,Open: 4/01 Closed: 11/30,4,11,72,6453,123,70.40,72,6123,120,69.30,73,5142,106,64.50
4564,Blue at University of Illinois Golf Course,Savoy,Illinois,800 Hartwell Dr,61874,-88.2579228,40.046536,18,Public,Open: 3/01 Closed: 12/15,3,12,73,6579,114,70.40,73,6423,112,69.60,74,6129,118,74.10
4565,Orange at University of Illinois Golf Course,Savoy,Illinois,800 Hartwell Dr,61874,-88.2579228,40.046536,18,Public,Open: 3/01 Closed: 12/15,3,12,72,6817,120,72.10,72,6596,118,71.10,76,5721,121,72.20
4567,Original Nine at Schaumburg Golf Club,Schaumburg,Illinois,401 N Roselle Rd,60194,-88.07297539999999,42.0348455,9,Public,Open: 3/01 Closed: 11/30,3,11,35,3208,117,34.80,35,3052,114,34.30,35,2437,110,33.40
4569,White & Blue (Tournament) at Schaumburg Golf Club,Schaumburg,Illinois,401 N Roselle Rd,60194,-88.07297539999999,42.0348455,18,Public,Open: 3/01 Closed: 11/30,3,11,72,6425,117,70.40,72,6135,114,68.70,72,4878,110,67.00
4571,Cardinal Creek Golf Club,Scott AFB,Illinois,Bldg 1192 S Dr,62225,-89.844315,38.5326323,18,Military,year round,1,12,72,6484,125,70.80,72,6188,122,70.10,73,5469,115,70.80
4572,Fairlakes Golf Course,Secor,Illinois,Rural Route 1,61771,-89.1353567,40.7419798,18,Public,Open: 3/01 Closed: 11/13,3,11,67,5207,102,66.40,67,4987,102,64.10,67,4365,103,64.00
4573,Indian Oaks Country Club,Shabbona,Illinois,603 E Preserve Rd,60550,-88.8649205,41.7601406,9,Semi-Private,Open: 4/15 Closed: 10/15,4,10,37,3505,112,36.30,37,3320,106,35.90,38,2901,112,36.20
4578,Evanston Golf Club,Skokie,Illinois,4401 Dempster St,60076,-87.73870989999999,42.0391938,18,Private,Open: 3/01 Closed: 12/31,3,12,70,6593,130,71.90,70,6351,127,70.80,76,5728,126,73.10
4580,Piper Glen Golf Club,Springfield,Illinois,7112 Piper Glen Dr,62707,-89.7002196,39.6964731,18,Public,Open: 2/01 Closed: 12/31,2,12,72,6985,133,73.60,72,6612,127,71.90,72,5138,123,70.30
4586,Illini Country Club,Springfield,Illinois,1601 S Illinois Rd,62704,-89.67158820000002,39.7919169,18,Private,year round,1,12,71,6800,130,71.40,71,6400,127,70.80,72,5800,128,72.80
4587,Lincoln Greens Golf Course,Springfield,Illinois,700 E Lake Dr,62707,-89.5871037,39.7435295,18,Public,Open: 3/01 Closed: 11/30,3,11,72,6813,119,71.10,72,6582,114,70.90,72,5184,117,69.60
4589,Panther Creek Country Club,Springfield,Illinois,3001 Panther Creek Dr,62707,-89.7109929,39.7326912,18,Private,Open: 3/01 Closed: 11/01,3,10,72,7244,128,74.20,72,6770,124,72.10,72,5496,119,71.30
4590,"Rail Golf Club, The",Springfield,Illinois,1400 S Clubhouse Dr,62707,-89.61999800000001,39.877409,18,Public,Open: 3/01 Closed: 10/31,3,10,72,6583,120,71.10,72,5975,114,68.70,72,5406,116,70.60
4591,Spring Creek Golf Course,Spring Valley,Illinois,Rural Route 1,61362,-89.1998076,41.3275352,18,Public,Open: 3/01 Closed: 10/31,3,10,72,6465,125,71.60,72,6225,122,70.50,73,5196,120,70.90
4593,Emerald Hill,Sterling,Illinois,16802 Prairieville Rd,61081,-89.6317863,41.8270014,18,Public,Open: 3/01 Closed: 11/01,3,10,71,6244,113,69.50,71,5971,111,67.80,71,4869,108,66.80
4595,Stockton Atwood Community Golf Club,Stockton,Illinois,3501 S Golf Rd,61085,-90.0198204,42.3206783,18,Semi-Private,Open: 4/01 Closed: 10/01,4,9,72,6478,127,72.00,72,6245,123,70.70,76,5591,126,70.30
4596,Streamwood Oaks Golf Club,Streamwood,Illinois,565 Madison Dr,60107,-88.19804359999999,42.0217613,9,Public,Open: 3/15 Closed: 11/15,3,11,36,3435,125,36.45,36,3228,122,35.60,36,2597,120,35.15
4601,Timberlake Golf Course,Sullivan,Illinois,Rural Route 3,61951,-89.8845553,37.9873097,9,Public,Open: 3/01 Closed: 11/30,3,11,35,3045,105,34.70,35,2847,105,33.60,38,2620,112,34.00
4605,Red Hawk Country Club,Tamaroa,Illinois,6240 Route 154,62888,-89.3114902,38.08276,18,Semi-Private,year round,1,12,70,6155,111,70.00,70,5692,105,65.00,71,4343,112,64.30
4606,Lake Shore Golf Course,Taylorville,Illinois,1460 E 1000 N Rd,62568,-89.25419459999999,39.4944247,18,Public,Open: 3/01 Closed: 12/31,3,12,72,6850,117,72.00,72,6475,116,71.50,74,5800,114,74.00
4608,Lynwood Lynks,Thomson,Illinois,5020 Route 84,61285,-90.1007456,42.0045783,18,Semi-Private,year round,1,12,70,5696,107,66.50,70,5448,104,65.30,72,5071,105,68.10
4609,Odyssey Golf Course,Tinley Park,Illinois,19110 Ridgeland Ave,60477,-87.7775631,41.5385931,18,Public,Open: 4/01 Closed: 11/01,4,10,72,7095,131,73.10,72,6612,127,70.90,72,5554,116,69.30
4612,Ironhorse Golf Course,Tuscola,Illinois,2000 N Prairie,61953,-88.2734318,39.8166289,18,Public,Open: 4/01 Closed: 10/31,4,10,72,7046,120,72.70,72,6529,116,70.50,72,5206,108,68.90
4613,Deer Creek Golf Club,University Park,Illinois,25055 Western Ave,60466,-87.66745399999999,41.433713,18,Public,year round,1,12,72,6755,122,72.20,72,6391,119,70.60,72,5835,120,72.90
4614,Urbana Golf & Country Club,Urbana,Illinois,100 Country Club Rd,61801,-88.20766739999999,40.1283743,18,Private,Open: 3/15 Closed: 11/15,3,11,72,6551,126,71.50,72,6368,124,70.60,72,5459,124,71.20
4616,White Deer Run Golf Course,Vernon Hills,Illinois,250 W Gregg's Pkwy,60061,-87.9675532,42.255507,18,Public,Open: 4/01 Closed: 11/30,4,11,72,7101,137,74.60,72,6751,133,72.90,72,4927,116,68.40
4618,Gambit Golf Club,Vienna,Illinois,1550 Route 146 E,62995,-88.8487124,37.4106941,18,Public,year round,1,12,72,6546,137,72.40,72,5991,130,69.71,72,4725,102,66.10
4622,Middle/Back at Midlane Country Club,Wadsworth,Illinois,4555 W Yorkhouse Rd,60083,-87.9153996,42.41335249999999,18,Public,Open: 4/01 Closed: 10/31,4,10,72,6932,134,73.80,72,6559,130,72.40,72,5160,123,70.50
4623,Back/Front at Midlane Country Club,Wadsworth,Illinois,4555 W Yorkhouse Rd,60083,-87.9153996,42.41335249999999,18,Public,Open: 4/01 Closed: 10/31,4,10,72,7015,135,74.50,72,6670,132,71.30,73,5367,125,71.40
4624,Front/Middle at Midlane Country Club,Wadsworth,Illinois,4555 W Yorkhouse Rd,60083,-87.9153996,42.41335249999999,18,Public,Open: 4/01 Closed: 10/31,4,10,72,7021,132,74.40,72,6721,128,72.80,73,5521,124,72.70
4629,Quail Meadows Golf Course,Washington,Illinois,2215 Centennial Dr,61571,-89.5044089,40.7055286,18,Public,Open: 3/15 Closed: 10/31,3,10,72,6956,124,72.90,72,6617,121,71.30,72,5492,117,71.60
4630,Annbriar Golf Course,Waterloo,Illinois,1524 Birdie Ln,62298,-90.20142609999999,38.351756,18,Public,year round,1,12,72,6841,141,72.30,72,6407,135,69.10,72,4792,118,70.60
4631,"Ridge Golf & Country Club, The",Waterloo,Illinois,643 Ridge Rd,62298,-90.130527,38.344685,18,Semi-Private,year round,1,12,72,6525,120,71.10,72,5890,117,69.40,72,4735,115,68.10
4632,Acorns Golf Links,Waterloo,Illinois,3933 Anne Rd,62298,-90.199375,38.294035,18,Public,year round,1,12,72,6701,125,72.30,72,6256,121,70.20,72,5497,129,72.20
4634,Bonnie Brook Golf Course,Waukegan,Illinois,2800 N Lewis Ave,60087,-87.85732519999999,42.40315289999999,18,Public,Open: 4/01 Closed: 12/01,4,11,72,6701,126,72.40,72,6341,122,70.80,73,5559,124,72.20
4636,Orchard Hills Golf Course,Waukegan,Illinois,38342 N Green Bay Rd,60087,-87.88087200000001,42.419315,18,Public,year round,1,12,71,6458,107,69.70,71,6199,103,68.50,71,5973,112,72.80
4637,Lakewood at St. Andrews Golf & Country Club,West Chicago,Illinois,3N441 Route 59,60185,-88.2091961,41.9269882,18,Public,year round,1,12,72,6666,121,71.10,72,6358,117,69.60,72,5353,114,69.40
4638,Eighteen Hole at Old Wayne Golf Club,West Chicago,Illinois,2N751 Klein Rd,60185,-88.1894116,41.9156404,18,Private,Open: 4/01 Closed: 11/01,4,10,72,6805,118,71.70,72,6450,117,70.10,72,5807,116,72.40
4641,Saint Andrews at St. Andrews Golf & Country Club,West Chicago,Illinois,3N441 Route 59,60185,-88.2091961,41.9269882,18,Public,year round,1,12,71,6729,118,71.20,71,6352,116,70.40,71,5097,110,68.20
4642,Franklin County Country Club,West Frankfort,Illinois,11058 Country Club Rd,62896,-88.9545531,37.8744596,18,Semi-Private,year round,1,12,71,6600,126,71.00,71,6325,123,69.70,71,4915,119,68.40
4646,Hillside/Woodside at Cantigny,Wheaton,Illinois,27 W 270 Mack Rd,60187,-88.1552778,41.8472222,18,Public,Open: 4/15 Closed: 10/31,4,10,72,6915,125,72.20,72,6276,119,70.20,72,5236,105,64.90
4647,Lakeside/Hillside at Cantigny,Wheaton,Illinois,27 W 270 Mack Rd,60187,-88.1552778,41.8472222,18,Public,Open: 4/15 Closed: 10/31,4,10,72,6793,130,72.80,72,6207,124,70.50,72,5183,120,70.30
4651,Woodside/Lakeside at Cantigny,Wheaton,Illinois,27 W 270 Mack Rd,60187,-88.1552778,41.8472222,18,Public,Open: 4/15 Closed: 10/31,4,10,72,6952,136,73.10,72,6281,130,70.90,72,5425,127,71.90
4652,Chevy Chase Golf Course,Wheeling,Illinois,1000 N Milwaukee Ave,60090,-87.919399,42.1577653,18,Public,Open: 4/01 Closed: 12/01,4,11,72,6608,126,71.20,72,6206,122,69.80,72,5215,111,65.00
4653,East/West at Rend Lake Golf Course,Whittington,Illinois,12476 Golf Course Dr,62897,-88.92464369999999,38.0779255,18,Public,Open: 3/15 Closed: 11/15,3,11,72,6812,131,71.80,72,6439,128,70.30,72,5849,116,72.60
4654,West/South at Rend Lake Golf Course,Whittington,Illinois,12476 Golf Course Dr,62897,-88.92464369999999,38.0779255,18,Public,Open: 3/15 Closed: 11/15,3,11,72,6835,133,73.00,72,6472,130,71.20,72,5861,116,72.60
4655,South/East at Rend Lake Golf Course,Whittington,Illinois,12476 Golf Course Dr,62897,-88.92464369999999,38.0779255,18,Public,Open: 3/15 Closed: 11/15,3,11,72,6861,130,72.20,72,6483,127,70.70,72,5830,116,72.50
4657,Westmoreland Country Club,Wilmette,Illinois,2601 Old Glenview Rd,60091,-87.7403733,42.0666334,18,Private,Open: 3/01 Closed: 11/30,3,11,72,6727,132,72.70,72,6405,128,71.40,73,5826,131,74.40
4661,Klein Creek Golf Club,Winfield,Illinois,1 N 333 Pleasant Hill Rd,60190,-88.1359842,41.8787569,18,Public,Open: 4/01 Closed: 12/01,4,11,72,6701,127,72.10,72,6266,124,70.10,72,4909,110,66.20
4664,Regulation at Winnetka Golf Club,Winnetka,Illinois,1300 Oak St,60093,-87.7526626,42.1045112,18,Public,Open: 4/01 Closed: 10/31,4,10,71,6472,125,70.90,71,6194,122,69.90,71,5740,124,73.30
4668,Seven Bridges Golf Club,Woodridge,Illinois,1 Mulligan Dr,60517,-88.0741208,41.7704475,18,Public,Open: 4/01 Closed: 10/31,4,10,72,7103,135,74.60,72,6681,130,72.30,72,5262,121,70.40
4670,Village Greens of Woodridge,Woodridge,Illinois,1575 W 75th St,60517,-88.0256084,41.7490302,18,Public,year round,1,12,72,6650,121,71.20,72,6290,117,69.60,73,5847,119,72.20
4671,Belk Park Golf Course,Wood River,Illinois,880 Belk Park Rd,62095,-90.04474560000001,38.86398579999999,18,Public,year round,1,12,72,6812,121,71.50,72,6457,118,70.70,73,5709,118,71.80
4673,Bull Valley Golf Club,Woodstock,Illinois,1311 Club Rd,60098,-88.41133200000002,42.306716,18,Private,Open: 4/01 Closed: 10/31,4,10,72,7319,147,76.50,72,6997,143,74.90,72,5157,128,72.10
4674,Crystal Woods Golf Club,Woodstock,Illinois,5915 S Route 47,60098,-88.42046669999999,42.244159,18,Semi-Private,Open: 3/01 Closed: 11/30,3,11,72,6403,117,70.30,72,6150,115,69.10,73,5488,114,70.50
4676,Water's Edge Golf Club,Worth,Illinois,7205 W 115th St,60482,-87.7996945,41.6811586,18,Public,Open: 4/01 Closed: 11/01,4,10,72,6904,131,72.90,72,6533,127,71.30,72,5323,122,70.40
4678,Shiloh Park Golf Course,Zion,Illinois,2400 Dowie Memorial Dr,60099,-87.83156609999999,42.4513262,9,Public,Open: 3/01 Closed: 11/01,3,10,35,2863,118,34.20,35,2695,115,33.70,35,2348,111,33.40
5146,River Valley Golf Course,Adel,Iowa,2267 Valley View Trl,50003,-94.03178720000001,41.6507265,18,Public,Open: 2/01 Closed: 12/15,2,12,72,6700,121,71.10,72,6218,118,69.30,72,5452,114,67.40
5157,Amana Colonies Golf Course,Amana,Iowa,451 27th Ave,52203,-91.90495279999999,41.8085369,18,Public,Open: 3/15 Closed: 11/01,3,10,72,6824,136,73.30,72,6483,129,71.10,72,5228,115,69.70
5158,Ames Golf & Country Club,Ames,Iowa,5725 George Washington Carver Ave,50010,-93.6593941,42.0757579,18,Private,Open: 4/01 Closed: 10/31,4,10,71,6515,116,72.10,71,6170,113,70.10,73,5485,116,72.20
5161,Veenker Memorial Golf Course,Ames,Iowa,Stange Rd,50011,-93.6449523,42.0462938,18,Public,Open: 3/15 Closed: 11/15,3,11,72,6543,124,71.30,72,6086,120,69.20,73,5357,108,65.60
5171,Atlantic Golf & Country Club,Atlantic,Iowa,102 W 29th St,50022,-95.01491419999999,41.3845175,18,Private,Open: 4/01 Closed: 11/01,4,10,69,6187,116,68.80,69,5746,113,67.50,70,5218,113,69.50
5183,Palmer Hills Golf Course,Bettendorf,Iowa,2999 Middle Rd,52722,-90.4893894,41.549101,18,Public,Open: 3/15 Closed: 11/15,3,11,71,6538,124,71.50,71,6323,123,70.60,71,5923,128,68.90
5186,Breda Golf Club,Breda,Iowa,Hwy 217 E,51436,-94.9769338,42.1816509,9,Public,year round,1,12,35,3045,105,34.10,35,2840,101,33.20,36,2430,108,35.20
5190,"Gruis Recreation Area, The Barn",Buffalo Center,Iowa,2724 360th St,50424,-93.939065,43.2859227,9,Public,Open: 4/01 Closed: 11/01,4,10,36,3230,114,35.10,36,2964,110,34.10,36,2839,113,35.90
5191,Burlington Golf Club,Burlington,Iowa,2124 Sunnyside Ave,52601,-91.1221199,40.8337162,18,Private,Open: 4/01 Closed: 11/01,4,10,72,6529,127,71.40,72,6139,122,69.60,72,5482,115,71.10
5195,Carroll Country Club,Carroll,Iowa,Hwy 30 E,51401,-94.8701119,42.0664401,18,Private,Open: 4/01 Closed: 11/01,4,10,71,6219,122,70.40,71,5864,119,69.60,71,4724,117,70.20
5197,Shoreline Golf Course,Carter Lake,Iowa,210 E Locust St,51510,-95.92749970000001,41.28615629999999,18,Public,year round,1,12,72,6731,124,71.90,72,6052,113,69.00,72,5553,107,66.00
5200,Beaver Hills Country Club,Cedar Falls,Iowa,8230 Beaver Hills Dr,50613,-92.50873059999999,42.5700346,18,Private,Open: 4/01 Closed: 10/31,4,10,72,6848,126,73.00,72,6550,123,71.60,72,5276,114,70.70
5201,Pheasant Ridge at Pheasant Ridge,Cedar Falls,Iowa,3205 W 12th St,50613,-92.48395,42.527657,18,Public,Open: 4/01 Closed: 11/01,4,10,72,6730,119,72.50,72,6530,112,71.60,72,5413,101,68.40
5204,Cedar Rapids Country Club,Cedar Rapids,Iowa,550 27th St SE,52402,-91.62762070000001,42.0027602,18,Private,Open: 3/01 Closed: 12/31,3,12,72,6601,125,72.00,72,6206,122,70.20,73,5413,121,70.90
5205,Ellis Park Golf Course,Cedar Rapids,Iowa,1401 Zika Ave NW,52405,-91.6941504,41.9999019,18,Public,Open: 3/01 Closed: 11/01,3,10,72,6648,124,72.00,72,6410,120,70.80,72,5210,103,68.00
5206,Elmcrest Country Club,Cedar Rapids,Iowa,1000 36th St NE,52402,-91.650663,42.015907,18,Private,Open: 3/01 Closed: 11/01,3,10,70,6280,121,70.10,70,5795,118,68.50,72,5312,113,70.60
5208,St. Andrews Golf Club,Cedar Rapids,Iowa,1866 Blairs Ferry Rd NE,52402,-91.663263,42.039394,18,Semi-Private,year round,1,12,70,6230,118,69.80,70,5747,116,68.90,71,5019,108,67.30
5215,Cedar Bend Golf,Charles City,Iowa,2147 Underwood Ave,50616,-92.6334994,43.0449693,18,Public,Open: 2/01 Closed: 12/01,2,11,72,6765,118,71.80,72,6231,113,69.50,72,5337,113,69.70
5222,Pleasant Valley Sports Club,Clermont,Iowa,24749 Canoe Rd,52135,-91.65568739999999,42.9908361,9,Semi-Private,Open: 4/01 Closed: 11/01,4,10,36,3095,122,34.50,36,2962,117,34.00,36,2651,110,34.60
5225,Clinton Country Club,Clinton,Iowa,1501 Harrison Dr,52732,-90.2185579,41.8274938,18,Private,Open: 3/15 Closed: 11/30,3,11,72,6516,125,71.90,72,6348,123,71.20,72,5335,116,69.90
5226,Eighteen Hole at Valley Oaks Golf Club,Clinton,Iowa,3330 Harts Mill Rd,52732,-90.2650255,41.8273185,18,Semi-Private,Open: 3/15 Closed: 11/15,3,11,72,6803,127,73.00,72,6322,123,71.20,73,5337,121,70.30
5233,Brown Deer Golf Club,Coralville,Iowa,1900 Country Club Dr,52241,-91.56748689999999,41.7020804,18,Semi-Private,Open: 3/01 Closed: 11/01,3,10,71,6315,126,71.0,71,5853,123,69.2,71,5367,116,66.4
5238,Lakeshore Country Club,Council Bluffs,Iowa,4500 Piute St,51501,-95.85191720000002,41.2130557,18,Private,Open: 4/01 Closed: 11/15,4,11,71,6234,120,69.60,71,6054,119,68.70,72,5391,113,70.20
5239,Fox Run at Fox Run Golf Course,Council Bluffs,Iowa,3001 Macineery Dr,51501,-95.8927202,41.2105973,18,Public,Open: 4/01 Closed: 11/01,4,10,71,6278,117,70.30,71,5920,114,68.40,71,4968,115,69.20
5241,Cresco Country Club,Cresco,Iowa,22005 115th St,52136,-92.1395,43.34976839999999,9,Private,Open: 4/01 Closed: 11/01,4,10,36,2971,116,35.00,36,2876,116,34.20,37,2751,113,35.50
5243,Crow Valley Golf Club,Davenport,Iowa,4315 E 60th St,52807,-90.5033397,41.583862,18,Private,Open: 4/01 Closed: 11/01,4,10,71,6715,133,73.00,71,6074,125,70.10,71,5284,121,71.20
5245,Duck Creek Golf Course,Davenport,Iowa,3000 E Locust,52803,-90.52840289999999,41.538461,18,Public,Open: 4/01 Closed: 11/01,4,10,70,5782,113,66.90,70,5630,112,66.40,74,5512,112,70.20
5246,Emeis Municipal Golf Course,Davenport,Iowa,4500 W Central Park Ave,52804,-90.6409669,41.5451615,18,Public,Open: 4/01 Closed: 11/05,4,11,72,6463,120,71.90,72,6211,115,70.80,74,5549,115,74.00
5248,Oneota Golf & Country Club,Decorah,Iowa,1714 Golf Rd,52101,-91.7340492,43.3060483,18,Semi-Private,Open: 4/01 Closed: 11/15,4,11,72,6472,122,70.60,72,6167,118,69.50,72,5656,111,70.70
5254,A. H. Blank Golf Course,Des Moines,Iowa,808 County Line Rd,50320,-93.603597,41.5121487,18,Public,Open: 4/01 Closed: 11/01,4,10,72,6715,126,72.10,72,6435,121,71.20,72,5617,116,71.20
5255,Echo Valley Country Club,Des Moines,Iowa,760 County Line Rd,50321,-93.6633399,41.5115768,18,Private,Open: 3/15 Closed: 12/01,3,11,72,6891,130,73.70,72,6408,128,71.70,72,5488,115,68.40
5257,Wakonda Club,Des Moines,Iowa,3915 Fleur Dr,50321,-93.6416893,41.5504927,18,Private,year round,1,12,72,6881,135,74.90,72,6493,132,72.80,75,5795,128,72.90
5258,Waveland Municipal Golf Course,Des Moines,Iowa,4908 University Ave,50311,-93.688716,41.596535,18,Public,Open: 4/01 Closed: 11/01,4,10,72,6437,126,71.40,72,6289,121,70.20,72,5323,109,69.40
5264,"Meadows Golf Club, The",Dubuque,Iowa,15766 Clover Ln,52002,-90.7960035,42.5139045,18,Public,Open: 4/01 Closed: 11/01,4,10,72,6667,132,72.60,72,6247,126,70.50,72,5199,114,68.70
5265,Dubuque Golf & Country Club,Dubuque,Iowa,1800 Randall Pl,52003,-90.68177899999999,42.48478799999999,18,Private,Open: 4/01 Closed: 11/01,4,10,70,5852,121,68.90,70,5604,121,68.10,70,4963,113,69.10
5272,Woods Edge Golf Course,Edgewood,Iowa,Route 1,52044,-91.4012515,42.6444313,9,Public,Open: 4/01 Closed: 11/01,4,10,36,3286,121,35.80,36,3173,120,35.30,36,2957,114,36.00
5275,Elkader Golf & Country Club,Elkader,Iowa,Gunder Rd NE,52043,-91.3989976,42.8683599,9,Semi-Private,Open: 4/01 Closed: 11/01,4,10,33,2897,97,33.60,33,2719,97,33.10,33,2418,97,32.50
5289,Fort Dodge Country Club,Fort Dodge,Iowa,Hwy 7 & 169,50501,-93.118054,35.366145,18,Private,Open: 4/01 Closed: 11/01,4,10,71,6512,120,70.50,71,6214,118,68.40,71,5206,115,70.00
5290,Lakeside Municipal Golf Course,Fort Dodge,Iowa,Rural Route 2,50501,-94.16801579999999,42.4974694,18,Public,Open: 4/01 Closed: 10/31,4,10,72,6436,114,70.10,72,6212,114,69.50,72,5540,109,69.80
5303,Jester Park at Jester Park Golf Club,Granger,Iowa,Route 1,50109,-93.8270472,41.75906080000001,18,Public,Open: 4/01 Closed: 11/01,4,10,71,6856,125,72.90,71,6560,123,71.50,72,4993,109,68.40
5305,Beaver Creek Golf Course,Grimes,Iowa,11200 NW Towner Dr,50111,-93.770056,41.72092,18,Public,Open: 4/01 Closed: 10/31,4,10,72,6685,121,71.80,72,6207,117,69.70,72,5245,122,70.40
5306,Grinnell Golf & Country Club,Grinnell,Iowa,933 13th Ave,50112,-92.7231842,41.7560205,9,Private,Open: 4/01 Closed: 11/01,4,10,35,3095,118,34.90,35,2850,115,34.00,35,2418,112,33.50
5313,Harlan Golf & Country Club,Harlan,Iowa,2503 12th St,51537,-95.32601749999999,41.64412360000001,9,Semi-Private,Open: 3/01 Closed: 12/01,3,11,36,3417,122,36.10,36,3232,118,35.30,37,2960,118,36.70
5317,Town & Country Recreation Area,Holstein,Iowa,400 Kofmehl Dr,51025,-95.54064799999999,42.4778196,9,Private,Open: 4/15 Closed: 11/30,4,11,35,3126,113,34.00,35,2857,112,33.80,35,2661,110,34.80
5323,Wapsipinicon Golf Club,Independence,Iowa,1749 Golf Course Rd,50644,-91.930499,42.4838293,9,Semi-Private,Open: 4/01 Closed: 11/01,4,10,36,3187,116,35.40,36,3020,115,35.40,37,2777,113,35.40
5324,Indianola Country Club,Indianola,Iowa,1610 Country Club Rd,50125,-93.565669,41.378517,9,Private,Open: 3/15 Closed: 11/01,3,10,36,3162,120,34.90,36,2948,116,33.90,35,2452,111,33.30
5329,Finkbine Golf Course,Iowa City,Iowa,W Melrose Ave,52242,-91.5768751,41.65707860000001,18,Public,Open: 4/01 Closed: 11/01,4,10,72,7030,132,73.90,72,6632,128,72.00,72,5414,123,73.10
5330,Pleasant Valley Golf Course,Iowa City,Iowa,4390 SE Sand Rd,52240,-91.5214061,41.6137883,18,Public,Open: 4/01 Closed: 11/01,4,10,72,6472,127,71.60,72,6225,124,70.50,72,5067,111,68.40
5332,Meadow Hills Golf Course,Iowa Falls,Iowa,Old Hwy 20,50126,-93.2623603,42.4482609,9,Public,Open: 4/01 Closed: 11/01,4,10,35,2590,103,32.90,35,2449,100,32.00,35,2286,103,33.25
5338,Hyperion Field Club,Johnston,Iowa,7390 NW Beaver Dr,50131,-93.70701,41.69233,18,Private,Open: 3/01 Closed: 11/01,3,10,72,6423,127,72.10,72,6216,125,71.30,72,5403,123,72.30
5339,Kalona Golf Club,Kalona,Iowa,1376 Hwy 1,52247,-91.71182999999999,41.4565096,9,Semi-Private,Open: 4/01 Closed: 11/01,4,10,36,3128,123,36.10,36,2961,121,34.60,36,2291,114,35.20
5348,Rice Lake Golf & Country Club,Lake Mills,Iowa,43080 Golf Ave,50450,-93.50578519999999,43.3877189,18,Semi-Private,Open: 4/01 Closed: 11/01,4,10,71,6238,118,69.60,71,5902,113,68.10,72,5226,111,69.40
5357,Le Mars Golf Course,Le Mars,Iowa,935 Park Ln,51031,-96.1520187,42.8011802,18,Public,Open: 4/01 Closed: 11/01,4,10,72,6762,126,71.80,72,6232,124,68.80,72,5300,120,70.30
5359,Spring Valley Golf Course,Livermore,Iowa,1105 140th Ave,50558,-94.1889585,42.9287953,18,Public,Open: 4/01 Closed: 11/30,4,11,72,6421,117,70.20,72,6185,113,70.00,72,5467,108,69.20
5361,Glynn's Creek Golf Course,Long Grove,Iowa,19251 290th St,52756,-90.52439129999999,41.7277755,18,Public,Open: 4/01 Closed: 11/15,4,11,72,7036,131,73.50,72,6700,127,72.10,72,5435,109,70.60
5369,Willow Vale Golf Club,Mapleton,Iowa,W Main St,51034,-95.7888298,42.1659011,9,Public,Open: 4/01 Closed: 11/01,4,10,35,3219,118,35.20,35,3114,116,34.90,35,2623,121,35.10
5373,Hunters Ridge Golf Course,Marion,Iowa,2901 Hunters Ridge Rd,52302,-91.5823916,42.0749554,18,Public,Open: 4/01 Closed: 10/31,4,10,72,7007,132,74.10,72,6527,126,71.80,72,5090,118,71.20
5375,Squaw Creek Golf Course,Marion,Iowa,Hwy 13,52302,-91.5504067,42.0336821,18,Public,Open: 4/01 Closed: 11/01,4,10,72,6665,111,70.50,72,6313,109,69.70,73,5627,112,70.40
5377,American Legion Memorial Golf Course,Marshalltown,Iowa,1301 S 6th St,50158,-92.92256069999999,42.0319256,18,Public,Open: 4/01 Closed: 11/01,4,10,70,6224,115,69.50,70,5890,111,68.00,71,5273,105,64.80
5381,Five By Eighty Country Club,Menlo,Iowa,1086 State Hwy 25,50164,-94.45272299999999,41.4909999,9,Semi-Private,year round,1,12,36,3228,113,35.10,36,3074,109,34.50,38,2760,111,34.60
5387,Hillcrest Country Club,Mount Vernon,Iowa,203 Country Club Dr,52314,-91.40375809999999,41.9130805,9,Semi-Private,Open: 3/01 Closed: 11/01,3,10,35,2521,104,33.00,35,2482,104,32.90,35,2282,105,33.60
5389,Geneva Golf & Country Club,Muscatine,Iowa,3100 Bidwell Rd,52761,-91.0556955,41.44823270000001,18,Private,Open: 4/01 Closed: 11/15,4,11,71,6418,128,70.50,71,6095,123,69.30,71,5087,118,68.80
5396,New Hampton Golf & Country Club,New Hampton,Iowa,2074 Panora,50659,-92.2453187,43.0572461,9,Semi-Private,Open: 4/01 Closed: 11/01,4,10,36,2974,119,34.40,36,2832,114,33.60,36,2459,114,34.10
5402,Quail Creek Golf Course,North Liberty,Iowa,700 Club House Rd NE,52317,-91.61069499999999,41.734236,9,Public,Open: 4/01 Closed: 11/01,4,10,36,3523,124,36.80,36,3397,118,36.20,36,2728,118,37.30
5406,Hickory Grove Golf Club,Oelwein,Iowa,1509 Outer Rd,50662,-91.9018622,42.6492935,9,Semi-Private,Open: 3/15 Closed: 11/01,3,10,36,3485,125,36.30,36,3331,124,35.70,39,3120,123,39.20
5409,Brooks Golf Club,Okoboji,Iowa,Hwy 71 No,51355,-95.1287985,43.383707,18,Public,Open: 4/01 Closed: 10/31,4,10,70,6361,117,69.50,70,5899,114,68.50,70,5109,114,69.60
5411,Landsmeer Golf Club,Orange City,Iowa,902 7th St NE,51041,-96.04380689999999,43.011495,18,Public,Open: 4/15 Closed: 11/01,4,10,71,6370,120,70.60,71,6008,117,69.20,71,5252,120,70.00
5414,Edmundson Golf Course,Oskaloosa,Iowa,1608 Edmondson Dr,52577,-92.6588233,41.2814884,18,Public,Open: 4/01 Closed: 11/01,4,10,70,6031,116,68.60,70,5668,113,66.90,70,4701,112,66.90
5415,Elmhurst Country Club,Oskaloosa,Iowa,2214 S 11th St,52577,-92.63119909999999,41.275048,18,Private,year round,1,12,72,6382,128,71.90,72,6003,123,70.00,74,4888,117,69.20
5416,Ottumwa Country Club,Ottumwa,Iowa,304 E Golf Ave,52501,-92.4018244,41.041794,18,Private,year round,1,12,72,6363,124,71.80,72,5995,119,70.60,71,5211,113,71.26
5417,Ottumwa Municipal Golf Course,Ottumwa,Iowa,13120 Angle Rd,52501,-92.412515,41.081063,18,Public,Open: 4/01 Closed: 11/01,4,10,70,6335,118,70.40,70,6030,116,69.60,70,4954,102,66.70
5418,Lake Panorama National Golf Course,Panora,Iowa,5071 Clover Ridge Rd,50216,-94.38919969999999,41.7122542,18,Semi-Private,Open: 4/01 Closed: 11/01,4,10,72,7024,131,73.20,72,6729,128,72.10,72,5765,121,73.20
5421,Bos Landen Golf Club,Pella,Iowa,2411 Bos Landen Dr,50219,-92.9461282,41.3899045,18,Public,Open: 4/01 Closed: 10/31,4,10,72,6932,133,73.50,72,6480,130,71.40,72,5155,122,70.90
5423,Thunder Hills Country Club,Peosta,Iowa,16600 Thunder Hills Rd,52068,-90.81685209999999,42.4514113,18,Private,Open: 4/01 Closed: 11/01,4,10,71,6365,125,71.00,71,6055,121,69.60,73,5166,118,69.40
5424,Timberline Golf Course,Peosta,Iowa,19804 E Pleasant Grove Rd,52068,-90.87580659999999,42.3894023,18,Public,Open: 4/01 Closed: 11/01,4,10,72,6545,119,71.40,72,6144,116,70.80,73,5318,113,73.50
5426,Copper Creek Golf Course,Pleasant Hill,Iowa,4815 Copper Creek Dr,50317,-93.52055879999999,41.6048668,18,Public,Open: 3/01 Closed: 10/31,3,10,71,6338,119,70.40,71,6008,114,68.50,71,4790,109,66.60
5427,Davenport Country Club,Pleasant Valley,Iowa,25500 Valley Dr,52767,-90.4090997,41.5813914,18,Private,Open: 4/01 Closed: 11/01,4,10,71,6468,130,72.20,71,6162,127,70.80,72,5009,122,71.00
5433,Red Oak Country Club,Red Oak,Iowa,Old Hwy 34 E of City,51566,-95.2258111,41.0099407,18,Semi-Private,Open: 4/01 Closed: 11/01,4,10,72,6231,122,70.30,72,5754,117,68.20,72,5057,111,69.20
5446,Sanborn Golf & Country Club,Sanborn,Iowa,Miller Park Dr,51248,-95.66602069999999,43.1786279,9,Public,Open: 4/01 Closed: 11/01,4,10,36,3123,112,36.20,36,3025,110,34.80,36,2728,114,35.80
5452,Wildcat Golf Course,Shellsburg,Iowa,100 Wildcat Trl,52332,-91.8770618,42.0882709,9,Public,year round,1,12,35,3012,116,34.30,35,2865,114,33.80,35,2238,109,34.80
5455,Fremont County Recreation Area,Sidney,Iowa,Route 1,51652,-95.64749590000001,40.7483337,9,Public,Open: 4/01 Closed: 11/01,4,10,35,3099,118,34.90,35,3002,116,34.30,37,2700,112,34.40
5460,Sioux City Country Club,Sioux City,Iowa,4001 Jackson St,51104,-96.40438119999999,42.5383216,18,Private,Open: 4/01 Closed: 11/01,4,10,72,6400,125,70.60,72,6216,124,69.30,72,5465,123,72.90
5463,Green Valley Municipal Golf Club,Sioux City,Iowa,4500 Donner Ave,51106,-96.3534433,42.4294117,18,Public,Open: 3/01 Closed: 11/01,3,10,72,7085,123,74.00,72,6733,116,72.20,72,5349,121,71.00
5467,Spencer Golf & Country Club,Spencer,Iowa,2200 W 18th St,51301,-95.17591850000001,43.15494530000001,18,Semi-Private,Open: 4/01 Closed: 11/01,4,10,72,6888,127,73.00,72,6559,124,71.40,72,5412,112,70.14
5469,Indian Hills Golf Club,Spirit Lake,Iowa,Rural Route 5,51360,-95.1022313,43.4226192,9,Public,Open: 4/01 Closed: 10/15,4,10,35,3000,125,35.00,35,2686,123,33.50,35,2380,120,32.50
5470,Okoboji View Golf Course,Spirit Lake,Iowa,1665 Hwy 86,51360,-95.1833985,43.4064923,18,Public,Open: 4/01 Closed: 11/01,4,10,70,6051,113,68.50,70,5771,112,67.30,73,5441,113,70.10
5472,Lake Creek Country Club,Storm Lake,Iowa,1 Club House Dr,50588,-95.263708,42.665593,18,Semi-Private,Open: 4/01 Closed: 11/01,4,10,72,6813,128,73.20,72,6499,124,71.60,72,5514,115,72.40
5491,Red Carpet Golf,Waterloo,Iowa,1409 Newell St,50703,-92.3184648,42.5165548,18,Semi-Private,Open: 4/01 Closed: 10/15,4,10,72,6557,119,70.80,72,6266,117,69.40,73,5754,106,72.10
5493,Irv Warren Memorial Golf Course,Waterloo,Iowa,1000 Fletcher Ave,50701,-92.36835909999999,42.4819094,18,Public,Open: 4/01 Closed: 11/30,4,11,72,6194,117,69.50,72,5954,114,68.20,72,5282,111,69.00
5494,Gates Park Municipal Golf Course,Waterloo,Iowa,820 E Donald St,50703,-92.3265304,42.5269012,18,Public,Open: 4/01 Closed: 11/01,4,10,72,6839,111,70.60,72,6382,108,68.50,72,5568,113,69.40
5496,Sunnyside Country Club,Waterloo,Iowa,1600 Olympic Dr,50701,-92.38493199999999,42.460913,18,Private,Open: 4/01 Closed: 11/01,4,10,72,6736,126,72.10,72,6451,124,71.00,72,5284,116,70.10
